Airport_Code,Airport Name,City,State_Code,Latitude,Longitude,Elevation_FT,Tower Freq
00A,STONE MOUNTAIN-BRITT MEMORIAL,STONE MOUNTAIN,GA,33.811667,-84.12,986,122.8
00CA,GOLDSTONE /GTS/,BARSTOW,CA,35.35,-116.88833,3038,
00E,AT&T - APACHE JUNCTION,MESA,AZ,33.495,-111.64167,2527,
00F,BROADUS AIPORT,BROADUS,MT,45.470472,-105.45714,3282,
00FD,RINGHAVER,RIVERVIEW,FL,28.846667,-82.345,25,
00FL,RIVER OAK,OKEECHOBEE,FL,27.231667,-80.97,35,
00I,CHAPMAN MEMORIAL FIELD,CENTERBURG,OH,40.295,-82.731667,1180,
00II,ENGLISH,ENGLISH,IN,38.34,-86.468333,508,
00IS,HAYENGA'S CANT FIND FARMS,KINGS,IL,40.025,-89.123333,820,
00J,GEORGIA-PACIFIC,CEDAR SPRINGS,GA,31.14,-85.046667,133,
00K,REDPATH RLA,BALDWIN,IL,38.181667,-89.808333,470,
00KS,HAYDEN FARM,GARDNER,KS,38.728333,-94.93,1100,
00L,LYALL-ROBERTS,ESCONDIDO,CA,33.325,-116.99,925,
00M,THIGPEN FIELD,BAY SPRINGS,MS,31.953333,-89.235,351,122.9
00MI,DOW CHEMICAL,LUDINGTON,MI,43.95,-86.416667,588,
00N,BUCKS,BRIDGETON,NJ,39.473333,-75.185,105,122.9
00NC,NORTH RALEIGH,LOUISBURG,NC,36.085,-78.371667,348,
00NJ,COLGATE-PISCATAWAY,NEW BRUNSWICK,NJ,40.521667,-74.475,78,
00OI,MIAMI VALLEY HOSPITAL,DAYTON,OH,39.745,-84.186667,905,
00OR,STEEL SYSTEMS,SALEM,OR,44.933333,-123.13,195,
00Q,THAYER AVIATION,GRIMES,CA,39.075,-121.91833,54,
00R,LIVINGSTON MUNI,LIVINGSTON,TX,30.685,-95.018333,151,122.7
00S,MC KENZIE BRIDGE STATE,MC KENZIE BRIDGE,OR,44.183333,-122.08833,1620,122.9
00TS,ALPINE RANGE,EVERMAN,TX,32.608333,-97.241667,670,
00V,MEADOW LAKE,COLORADO SPRINGS,CO,38.945,-104.57167,6874,123
00VA,CITY,VIRGINIA BEACH,VA,36.746667,-76.051667,12,
00X,DORAL RESORT & COUNTRY CLUB,MIAMI,FL,25.813333,-80.338333,6,
00XS,L P ASKEW FARMS,O'DONNELL,TX,33.033333,-101.93333,3110,
00Y,KAPAUN-WILSON FIELD,GRACEVILLE,MN,45.55,-96.451667,1122,122.9
01A,GRANDVIEW LODGE,PURKEYPILE,AK,62.943333,-152.27,1950,122.9
01B,WOODSTOCK,SOUTH WOODSTOCK,CT,41.921667,-71.953333,465,
01C,GRANT,GRANT,MI,43.341667,-85.775,815,122.8
01CA,LUGO SUBSTATION,HESPERIA,CA,34.368333,-117.37,3733,
01CO,ST VINCENT GENERAL HOSPITAL,LEADVILLE,CO,39.245,-106.24667,10175,
01FD,FLORIDA HOSPITAL-ALTAMONTE,ALTAMONTE SPRINGS,FL,28.666667,-81.37,86,
01FL,FROG WELLS,ST CLOUD,FL,28.291667,-81.34,67,
01G,PERRY-WARSAW,PERRY,NY,42.741667,-78.05,1557,122.8
01GA,MEDLIFE AMULATORY,COLUMBUS,GA,32.48,-84.978333,319,
01H,MC CHRISTY,STONINGTON,IL,39.643333,-89.145,630,
01I,AUGUST ACRES,CENTER VILLAGE,OH,40.163333,-82.781667,1100,122.9
01II,MYERS FIELD,LIZTON,IN,39.885,-86.506667,950,
01IL,HOOPESTON COMMUNITY MEMORIAL HOS,HOOPESTON,IL,40.458333,-87.66,583,
01J,HILLIARD AIRPARK,HILLIARD,FL,30.688333,-81.906667,59,122.9
01K,CALDWELL MUNI,CALDWELL,KS,37.036667,-97.586667,1157,122.9
01KS,FLYING N RANCH,LOST SPRINGS,KS,38.54,-97.003333,1485,
01LA,BARHAM,OAK RIDGE,LA,32.638333,-91.773333,90,
01LL,SCHUMAIER RLA,PINCKNEYVILLE,IL,38.125,-89.463333,555,
01M,TISHOMINGO COUNTY,BELMONT,MS,34.491667,-88.201667,578,122.8
01MA,DIGITAL/DASCOMB ROAD,ANDOVER,MA,42.625,-71.18,140,
01MI,FLOW THROUGH TERMINAL,FLINT,MI,43.05,-83.68,736,
01MN,BARNES,COOK,MN,47.9,-92.556667,1358,
01MO,HIGHWAY PATROL TROOP C HEADQUART,TOWN AND COUNTRY,MO,38.641667,-90.485,625,
01N,CRUMLING,HELLAM,PA,40.013333,-76.586667,420,
01NC,TOPSAIL AIRPARK,HOLLY RIDGE,NC,34.475,-77.581667,65,
01NE,DETOUR,WELLFLEET,NE,40.843333,-100.65333,3000,
01NJ,ALBERT GUIDO MEMORIAL,NEWARK,NJ,40.741667,-74.136667,10,
01NY,VASSAR HOSPITAL,POUGHKEEPSIE,NY,41.7,-73.95,100,
01OH,GILLMOR,FREMONT,OH,41.283333,-83.148333,665,
01OK,LAWRENCE,EAKLY,OK,35.295,-98.636667,1525,
01OR,RED & WHITE FLYING SERVICE,SILVER LAKE,OR,43.12,-121.045,4346,
01PA,PINE,MARS,PA,40.655,-80.051667,1215,
01PN,BIERLY(PERSONAL USE),BELLEFONTE,PA,40.93,-77.738333,960,
01Q,IANNI STRIP,HANFORD,CA,36.266667,-119.54333,240,
01TA,RED ADAIR,HOUSTON,TX,29.84,-95.505,90,
01TS,ST JOSEPH HOSPITAL,FORT WORTH,TX,32.728333,-97.325,675,
01TX,MIMS FARM,WAXAHACHIE,TX,32.388333,-96.876667,610,
01U,DUCKWATER,DUCKWATER,NV,38.851667,-115.63333,5124,122.9
01V,AURORA AIRPARK,AURORA,CO,39.733333,-104.655,5680,122.8
01W,SAWYER,NEW CHURCH,VA,37.99,-75.591667,13,
01WA,WILLAPA HARBOR,SOUTH BEND,WA,46.663333,-123.81167,154,
01X,JACKSON MEMORIAL HOSPITAL,MIAMI,FL,25.791667,-80.211667,8,
01XS,MEADOWOOD RANCH,ATHENS,TX,32.02,-95.745,500,
02A,GRAGG-WADE FIELD,CLANTON,AL,32.85,-86.611667,586,122.8
02AK,RUSTIC WILDERNESS,WILLOW,AK,61.875,-150.095,190,
02B,YALE MOTOR INN,WALLINGFORD,CT,41.495,-72.805,90,122.9
02C,CAPITOL,BROOKFIELD,WI,43.088333,-88.178333,850,122.7
02CA,SWEPI BETA PLATFORM ELLEN,HUNTINGTON BEACH,CA,33.583333,-118.12833,122,
02CO,MC CULLOUGH,MONTE VISTA,CO,37.643333,-106.04667,7615,
02E,MESA LUTHERAN HOSPITAL,MESA,AZ,33.435,-111.84167,1248,
02F,SMITH FIELD,FORNEY,TX,32.738333,-96.428333,505,
02FD,DOCTOR'S MEMORIAL HOSPITAL,BONIFAY,FL,30.785,-85.678333,170,
02FL,FLORIDA POWER CORP GENERAL HQ HE,ST PETERSBURG,FL,27.74,-82.681667,64,
02G,COLUMBIANA COUNTY,EAST LIVERPOOL,OH,40.673333,-80.641667,1160,123
02GA,DOUG BOLTON FIELD,COMMERCE,GA,34.203333,-83.428333,884,
02H,DAILY RLA,SULLIVAN,IL,39.555,-88.473333,660,
02IL,SHISSLER FARM,ELMWOOD,IL,40.796667,-89.986667,650,
02IS,CONDELL MEMORIAL HOSPITAL,LIBERTYVILLE,IL,42.275,-87.956667,720,
02K,ARROWHEAD,ST LOUIS,MO,38.696667,-90.52,451,122.9
02KS,JMJ LANDING,ST MARYS,KS,39.221667,-96.055,1170,
02L,FIVE POINTS RANCH,FIVE POINTS,CA,36.425,-120.265,295,
02LA,LA STATE POLICE TROOP G,BOSSIER CITY,LA,32.531667,-93.66,168,
02LL,OFFICIAL AIRLINE GUIDES,OAK BROOK,IL,41.85,-87.933333,670,
02M,WEST BOLIVAR FLYING SERVICE,BENOIT,MS,33.653333,-90.988333,136,
02MA,CUTTYHUNK,GOSNOLD,MA,41.42,-70.926667,9,
02MI,NITZ,MILFORD,MI,42.535,-83.676667,970,
02MN,BIRCH LAKE,DEERWOOD,MN,46.376667,-93.813333,1278,
02MO,BALDWIN AIRPARK,TROY,MO,39.05,-91.033333,675,
02NC,OAKRIDGE FARM,BOILING SPRINGS,NC,35.176667,-81.645,830,
02ND,DRESDEN FIELD,DRESDEN,ND,48.808333,-98.523333,1600,
02NE,BENES SERVICE,VALPARAISO,NE,41.075,-96.905,1550,
02NJ,PENSKE,PISCATAWAY,NJ,40.556667,-74.466667,78,
02NY,HANSEN,DURHAMVILLE,NY,43.133333,-75.655,435,
02OH,ZIMMERMAN,FREMONT,OH,41.376667,-83.083333,614,
02OI,MURTHA,CONNEAUT,OH,41.801667,-80.565,950,
02OK,CANON,OKLAHOMA CITY,OK,35.458333,-97.525,1191,
02OR,ROWENA DELL,THE DALLES,OR,45.681667,-121.31667,705,
02PN,PECO BERWYN,BERWYN,PA,40.07,-75.455,390,
02Q,ST ROSE HOSPITAL HELISTOP,HAYWARD,CA,37.633333,-122.08833,90,
02T,WISE RIVER,WISE RIVER,MT,45.768333,-112.98167,5830,122.9
02TA,MATAGORDA SHORE FACILITY,MATAGORDA,TX,28.721667,-95.873333,5,
02TS,FWOMC,FORT WORTH,TX,32.748333,-97.37,684,
02TX,GRAND VALLEY LANDS,RIO VISTA,TX,32.233333,-97.4,700,
02V,PINE VIEW,ELIZABETH,CO,39.345,-104.58167,6572,
02VA,THE GREENHOUSE,CULPEPER,VA,38.435,-77.856667,320,
02W,DECK AIRPARK,APEX,NC,35.741667,-78.925,338,
02WA,CAWLEYS SOUTH PRAIRIE,SOUTH PRAIRIE,WA,47.151667,-122.09333,690,
02WI,BEER,HUDSON,WI,45.031667,-92.655,920,
02X,BISCAYNE,MIAMI,FL,25.883333,-80.161667,0,
02XS,SEIDEL RANCH,ELROY,TX,30.148333,-97.663333,510,
02Y,GREENBUSH MUNI,GREENBUSH,MN,48.683333,-96.191667,1070,122.9
03A,SOUTHERN AERO SPORTS,CROSS ANCHOR,SC,34.625,-81.898333,600,
03B,RALPHS,WINDSOR,CT,41.865,-72.621667,10,122.9
03CA,GROSSMONT HOSPITAL,LA MESA,CA,32.78,-117.00667,634,
03FD,THARPE,BONIFAY,FL,30.828333,-85.731667,115,
03FL,RANGER,WEST PALM BEACH,FL,26.683333,-80.186667,20,
03G,HOWELL,SOMERTON,OH,39.933333,-81.158333,1277,122.9
03GA,FENNER,JACKSON,GA,33.21,-84.11,735,
03I,CLARKS DREAM STRIP,CIRCLEVILLE,OH,39.645,-83.018333,680,122.9
03II,DAVIS FIELD,MOUNT VERNON,IN,37.961667,-87.778333,465,
03IL,WIX,MONEE,IL,41.401667,-87.816667,750,
03IS,ST ANTHONY'S,ALTON,IL,38.905,-90.173333,580,
03J,MILLS RANCH,CHIEFLAND,FL,29.453333,-82.83,40,
03K,STATE FAIRGROUNDS,SPRINGFIELD,IL,39.838333,-89.638333,650,
03KS,VALLEY GRAIN,HIGHLAND,KS,39.865,-95.263333,1160,
03LA,DAMIEN,CARVILLE,LA,30.2,-91.128333,25,
03LL,THORNTON,TOLEDO,IL,39.341667,-88.291667,635,
03M,LAKESIDE MARINA,WINTHROP,ME,44.321667,-69.89,165,122.9
03MI,HAROLD MILLER,BAY CITY,MI,43.551667,-83.861667,585,
03MO,CAHOOCHIE,URBANA,MO,37.885,-93.131667,1010,
03N,UTIRIK,UTIRIK ISLAND,RM,11.233333,168.15,4,122.9
03NC,PILOTS RIDGE,CAROLINA BEACH,NC,34.105,-77.905,35,
03ND,OLAFSON BROTHERS,EDINBURG,ND,48.626667,-97.828333,1045,
03NE,HYDE RANCH,COMSTOCK,NE,41.546667,-99.331667,2430,
03NJ,AT&T,BERKELY HEIGHTS,NJ,40.668333,-74.41,360,
03NY,TALMAGE FLD,RIVERHEAD,NY,40.958333,-72.716667,95,
03OH,GIBBS FIELD,FREMONT,OH,41.418333,-83.016667,580,
03OI,MARYMOUNT HOSPITAL,GARFIELD HEIGHTS,OH,41.421667,-81.6,890,
03OR,POWWATKA RIDGE,TROY,OR,45.855,-117.485,3500,
03PA,COLLEGEVILLE,COLLEGEVILLE,PA,40.163333,-75.465,197,
03Q,BOTTIMORE RANCH,HERALD,CA,38.303333,-121.25167,70,
03R,ARANSAS PASS,ARANSAS PASS,TX,27.883333,-97.148333,4,122.8
03S,SANDY RIVER,SANDY,OR,45.401667,-122.22833,704,122.8
03T,GAY HILL FARM,GAY HILL,TX,30.263333,-96.5,505,
03TX,M D K FIELD,PEARLAND,TX,29.581667,-95.306667,50,
03U,GEYSER RANCH,ELY/PIOCHE,NV,38.663333,-114.63167,5977,122.9
03V,SAN LUIS,SAN LUIS,CO,37.191667,-105.46333,7969,122.9
03VA,WHIPOORWILL SPRINGS,NOKESVILLE,VA,38.665,-77.58,250,
03W,LEE CREEK,AURORA,NC,35.39,-76.785,3,
03WA,SPANGLE FIELD,SPANGLE,WA,47.408333,-117.37167,2440,
03WI,ZINK,BERLIN,WI,44.026667,-88.881667,880,
03X,EMERGENCY,MIAMI BEACH,FL,25.815,-80.141667,6,
03XS,JIM HOGG COUNTY,HEBBRONVILLE,TX,27.35,-98.736667,662,122.8
03Y,HALLOCK MUNI,HALLOCK,MN,48.753333,-96.943333,819,122.8
04A,FRANK SIKES,LUVERNE,AL,31.736667,-86.261667,300,122.8
04AK,LINDA CREEK,WISEMAN,AK,67.525,-149.82333,1400,
04CA,COYOTE FLATS,BISHOP,CA,37.201667,-118.47667,9988,
04CO,DENVER WATER DEPARTMENT,DENVER,CO,39.73,-105.01,5220,
04D,CERES,CERES,PA,42.008333,-78.258333,1440,
04F,DE LEON MUNI,DE LEON,TX,32.098333,-98.525,1293,122.9
04FD,HALL FARM,BRANFORD,FL,29.92,-82.903333,45,
04FL,CROSS CREEK FARMS,ORMOND,FL,29.24,-81.221667,30,
04G,LANSDOWNE,YOUNGSTOWN,OH,41.13,-80.62,1057,122.8
04H,HERREN,TIMEWELL,IL,40.088333,-90.885,654,
04I,COLUMBUS SOUTHWEST,COLUMBUS,OH,39.911667,-83.188333,920,122.9
04II,TURKEY RUN,NEW HAVEN,IN,41.13,-84.993333,765,
04IL,SCHERTZ,HUDSON,IL,40.638333,-89.006667,755,
04IS,VAN GORDER,MANSFIELD,IL,40.178333,-88.568333,728,
04J,DARLINGTON COUNTY,DARLINGTON,SC,34.448333,-79.89,193,122.8
04KS,ROBINSON INDUSTRIES,LAWRENCE,KS,38.978333,-95.22,835,
04L,CONOVER AIR LODGE,FRAZIER PARK,CA,34.761667,-119.05833,5160,
04LA,LOGGY BAYOU PLANTATION,RINGGOLD,LA,32.273333,-93.406667,275,
04LL,BRUNNER,WEST DUNDEE,IL,42.136667,-88.288333,750,
04M,CALHOUN COUNTY,BRUCE,MS,33.93,-89.343333,383,122.9
04MI,RAPIDS AIRWAY,EATON RAPIDS,MI,42.535,-84.628333,880,
04MN,HELBLAD,KELLIHER,MN,47.985,-94.686667,1195,
04MO,AIRPARK PVT,VANDALIA,MO,39.301667,-91.451667,767,
04N,MARLBORO ARPT INC,MARLBORO,NY,41.633333,-74.016667,410,122.9
04NC,WESTERN WAKE MEDICAL CENTER,CARY,NC,35.74,-78.781667,445,
04ND,HAHN FIELD,EMBDEN,ND,46.726667,-97.44,1064,
04NE,MC CONNELL FIELD,SARBEN,NE,41.16,-101.29833,3035,
04NJ,EMMANUEL,ELMER,NJ,39.596667,-75.233333,155,
04NY,CLAVERACK,HUDSON,NY,42.261667,-73.696667,250,
04OH,BOSSOW,GARRETTSVILLE,OH,41.248333,-81.1,1080,
04OI,HERR II,GRAND RAPIDS,OH,41.42,-83.796667,665,
04OK,STILLWATER MEDICAL CENTER,STILLWATER,OK,36.115,-97.08,984,
04OR,COLLINS LANDING STRIP,MITCHELL,OR,44.75,-120.20167,1500,
04PA,S & C DISTRIBUTION CENTER,PHILADELPHIA,PA,39.88,-75.228333,50,
04PN,STRAWBRIDGE & CLOTHIER EXTON,EXTON,PA,40.03,-75.63,320,
04Q,CHRISTENSEN RANCH,HOLLISTER,CA,36.871667,-121.33667,380,
04S,JOYE RANCH,SMILEY,TX,29.241667,-97.628333,280,122.9
04T,FLY-N-FISH LODGE,UNCERTAIN,TX,32.713333,-94.125,195,122.9
04TA,CAPITOL NATIONAL BANK BUILDING,AUSTIN,TX,30.271667,-97.745,540,
04TS,HUMMINGBIRD,HUTTO,TX,30.553333,-97.606667,690,
04TX,POCOCK,CHINA SPRING,TX,31.731667,-97.368333,565,
04U,KIRKEBY RANCH,ELY,NV,38.903333,-114.39,5980,122.9
04V,SAGUACHE MUNI,SAGUACHE,CO,38.096667,-106.16833,7826,122.9
04VA,VINT HILLS FARM STATION,WARRENTON,VA,38.751667,-77.671667,392,
04W,KEECH,BELHAVEN,NC,35.621667,-76.763333,18,
04WA,OX MEADOWS,SPOKANE,WA,47.581667,-117.43667,2345,
04WI,DUTCH GAP AIRSTRIP,BRISTOL,WI,42.523333,-88.016667,760,
04X,DORAL OCEAN BEACH RESORT,MIAMI BEACH,FL,25.825,-80.121667,6,
04XS,NAPIERS,MANSFIELD,TX,32.581667,-97.143333,625,
04Y,HAWLEY MUNI,HAWLEY,MN,46.883333,-96.351667,1208,122.8
05B,VAN BUREN,VAN BUREN,ME,47.158333,-67.931667,440,122.9
05C,GRIFFITH-MERRILLVILLE,GRIFFITH,IN,41.52,-87.401667,634,123
05CA,LOST HILLS SHERIFF'S STATION,CALABASAS,CA,34.141667,-118.52667,836,
05CO,RANCHO DE AEREO,MEAD,CO,40.215,-104.985,4978,
05D,NEW TOWN MUNI,NEW TOWN,ND,47.966667,-102.47833,1927,122.9
05E,RANTA STRIP,MORRISTOWN,AZ,33.853333,-112.65333,1840,
05F,CITY-COUNTY,GATESVILLE,TX,31.421667,-97.796667,905,122.9
05FD,AVENTURA,NORTH MIAMI BEACH,FL,25.961667,-80.14,6,
05FL,OCALA,OCALA,FL,29.171667,-82.15,25,
05G,WILLIAMS FIELD,SANDUSKY,MI,43.341667,-82.836667,772,
05GA,BEAVER RUIN,NORCROSS,GA,33.93,-84.153333,990,
05II,REICHHART,NEW HAVEN,IN,41.028333,-84.996667,795,
05IS,HARDY,MOUNT AUBURN,IL,39.726667,-89.263333,605,
05J,BONNER FIELD,ROBERTSDALE,AL,30.55,-87.65,125,
05KS,ROLLMAN PRIVATE,WASHINGTON,KS,39.791667,-96.975,1380,
05L,HUGHES-FULLERTON (GROUND LEVEL),FULLERTON,CA,33.878333,-117.965,154,
05LA,GREG'S FLYING SERVICE,BASKIN,LA,32.265,-91.698333,76,
05LL,MIDWEST,WILLOWBROOK,IL,41.748333,-87.935,710,
05M,PAULS VALLEY GENERAL HOSPITAL,PAULS VALLEY,OK,34.716667,-97.216667,911,122.9
05MI,ERIE AERODROME,ERIE,MI,41.783333,-83.516667,605,
05MN,SOWIEJA,FARMINGTON,MN,44.635,-93.071667,920,
05N,WHITE MOUNTAIN,NORTH CONWAY,NH,44.025,-71.118333,495,122.8
05ND,KLESSIG STRIP,GALESBURG,ND,47.208333,-97.471667,1208,
05NE,MC KAY,SPALDING,NE,41.721667,-98.308333,2010,
05NJ,COLGATE-JERSEY CITY,JERSEY CITY,NJ,40.713333,-74.031667,7,
05NY,OSWEGO COUNTY AT PULASKI,PULASKI,NY,43.551667,-76.09,445,
05OR,PEACOCK RANCH,ENTERPRISE,OR,45.441667,-117.35167,3500,
05PA,PHILADELPHIA MARKET STREET,PHILADELPHIA,PA,39.955,-75.178333,110,
05PN,STATE POLICE AREA III,HARRISBURG,PA,40.3,-76.858333,485,
05Q,CAMANCHE SKYPARK,IONE,CA,38.263333,-120.92333,520,
05R,SAN JACINTO METHODIST HOSPITAL,BAYTOWN,TX,29.738333,-94.98,19,
05S,VERNONIA AIRFIELD,VERNONIA,OR,45.851667,-123.24167,647,122.9
05T,HILDE-GRIFF FIELD,GEORGETOWN,TX,30.721667,-97.791667,950,
05TS,DEW DROP,JUSTIN,TX,33.13,-97.358333,750,
05TX,CIRCLE 'A' RANCH,BLUM,TX,32.13,-97.405,608,
05U,EUREKA,EUREKA,NV,39.605,-116.005,5954,122.9
05V,BLANCA,BLANCA,CO,37.411667,-105.55167,7720,122.9
05VA,PROVIDENCE,FARMVILLE,VA,37.223333,-78.418333,445,
05W,RIVERSIDE CAMPGROUND,BELHAVEN,NC,35.581667,-76.515,4,
05WA,SACRED HEART MEDICAL CENTER HELI,SPOKANE,WA,47.648333,-117.41333,2220,
05WI,AMES PRIVATE,DARIEN,WI,42.651667,-88.746667,958,
05Y,HENNING MUNI,HENNING,MN,46.303333,-95.44,1455,122.9
06A,MOTON FIELD MUNICIPAL,TUSKEGEE,AL,32.46,-85.68,264,122.8
06B,LUCKY LANDING MARINA AND SPB,BANGOR,ME,44.906667,-68.805,115,122.9
06C,SCHAUMBURG AIR PARK,CHICAGO/SCHAUMBURG,IL,41.99,-88.101667,797,123
06CA,SCE SOLAR I,YERMO,CA,34.87,-116.835,1942,
06D,ROLLA MUNI,ROLLA,ND,48.881667,-99.62,1820,122.8
06FD,WILLIAMS ROAD HELISTOP,FORT MYERS,FL,26.418333,-81.825,12,
06FL,MORTON PLANT HOSPITAL,CLEARWATER,FL,27.953333,-82.805,3,
06G,YOUNGSTOWN EXECUTIVE,YOUNGSTOWN,OH,41.06,-80.831667,997,122.8
06GA,SMITH,REDAN,GA,33.753333,-84.161667,1065,
06I,PATOKA RESERVOIR LANDING AREA,FRENCH LICK,IN,38.433333,-86.691667,536,122.9
06II,BILL SHANK,NOBLESVILLE,IN,40.023333,-86.036667,767,
06IL,THUDWHOMP,ILLINOIS CITY,IL,41.4,-90.99,700,
06IS,SINELE STRIP,NAUVOO,IL,40.546667,-91.275,695,
06J,SID'S STRIP,CHIPLEY,FL,30.815,-85.571667,83,
06K,PHILLIPS,LEWISTOWN,MO,40.075,-91.79,715,
06KS,RIVERSIDE HOSPITAL AIRLIFT,WICHITA,KS,37.696667,-97.373333,1332,
06LA,OFFSHORE SERVICE SHIPS,BELLE CHASSE,LA,29.846667,-90.028333,-1,
06M,EUPORA,EUPORA,MS,33.535,-89.313333,450,122.9
06MI,W A FOOTE MEMORIAL HOSPITAL,JACKSON,MI,42.251667,-84.391667,965,
06MN,KENT FIELD,GIBBON,MN,44.511667,-94.521667,1036,
06MO,NOAHS ARK,WALDRON,MO,39.23,-94.805,755,
06N,RANDALL,MIDDLETOWN,NY,41.431667,-74.393333,524,122.8
06ND,FITTERER'S STRIP,GLEN ULLIN,ND,46.748333,-101.67,2180,
06NE,ST MARYS HOSPITAL,NEBRASKA CITY,NE,40.68,-95.861667,1015,
06NJ,CHEMICAL BANK - NEW JERSEY NA,MOORESTOWN,NJ,39.95,-75,25,
06OH,HAL JOY AIRFIELD,WILLIAMSFIELD,OH,41.51,-80.591667,1160,
06OK,ALBERT LODGE,GROVE,OK,36.541667,-94.833333,900,
06OR,HAYDEN MOUNTAIN,FOREST GROVE,OR,45.465,-123.08,850,
06Q,RANCH AIRSTRIP,IONE,CA,38.336667,-120.97333,300,
06R,GRAWUNDER FIELD,BELLVILLE,TX,29.941667,-96.246667,289,122.8
06S,ACME FIELD,ACME,WA,48.71,-122.17833,301,
06TA,GLASER FIELD,BUCKHOLTS,TX,30.908333,-97.116667,480,
06TS,ROSCOE MC CONNICO,KERENS,TX,32.12,-96.178333,350,
06U,JACKPOT AIRPORT/HAYDEN FIELD,JACKPOT,NV,41.976667,-114.65833,5213,122.8
06VA,SAVAGE FARM,RUSTBURG,VA,37.271667,-79.175,1000,
06WA,N A DEGERSTROM YARD,SPOKANE,WA,47.686667,-117.19833,2013,
06WI,YOUNG PRIVATE,FREDERIC,WI,45.663333,-92.45,1075,
06X,PARRISH BROTHERS PRIVATE,MICCO,FL,27.875,-80.516667,24,
06XS,DIAMOND,PASADENA,TX,29.683333,-95.145,47,
06Y,HERMAN MUNI,HERMAN,MN,45.83,-96.16,1068,122.9
07A,FRANKLIN FIELD,UNION SPRINGS,AL,32.166667,-85.81,301,122.8
07B,BLUE HILL,BLUE HILL,ME,44.446667,-68.566667,360,122.9
07CA,WEST SIDE HOSPITAL,TAFT,CA,35.138333,-119.45167,850,
07D,TACKABERRY,AVOCA,MI,43.063333,-82.725,770,
07E,NAVAJO NR 5,NAVAJO,AZ,34.886667,-109.42667,6440,
07F,GLADEWATER MUNI,GLADEWATER,TX,32.528333,-94.971667,297,122.8
07FD,FLYING G RANCH,LEE,FL,30.418333,-83.283333,90,
07FL,SOUTHWEST FLORIDA REGIONAL MEDIC,FORT MYERS,FL,26.605,-81.86,18,
07G,FITCH H BEACH,CHARLOTTE,MI,42.575,-84.811667,891,123
07H,SCHNELLE,URSA,IL,40.098333,-91.396667,491,
07I,LAKE MONROE,BLOOMINGTON,IN,39.058333,-86.446667,538,122.9
07II,JENNINGS HOSPITAL,NORTH VERNON,IN,39.01,-85.64,740,
07IL,HALEY FIELD,JOLIET,IL,41.493333,-88.201667,590,
07K,CENTRAL CITY MUNI,CENTRAL CITY,NE,41.116667,-98.05,1715,122.9
07KS,HEAPE FIELD,AUGUSTA,KS,37.735,-96.936667,1330,
07LA,AIR OIL INC  NR 1,HARAHAN,LA,29.936667,-90.183333,0,
07LL,DUNLAP,BRIDGEPORT,IL,38.725,-87.743333,445,
07M,HASTING AIRPARK,BRUCE,MS,33.995,-89.313333,275,122.9
07MI,SCOTT AIRSTRIP,LAKE,MI,43.865,-85.023333,1065,
07MN,DAIRYVIEW,HADLEY,MN,44.055,-95.91,1680,
07MO,LAKE SEXTON,WARRENSBURG,MO,38.65,-93.616667,880,
07N,BERMUDIAN VALLEY AIRPARK,KRALLTOWN,PA,40.016667,-77.003333,470,122.8
07ND,BACKFISCH STRIP,GOLDEN VALLEY,ND,47.156667,-102.065,1875,
07NJ,PALISADES GENERAL HOSPITAL,NORTH BERGEN,NJ,40.791667,-73.995,10,
07NY,HOUGH-MCGEE,SELDEN,NY,40.871667,-73.036667,80,
07OK,PLEASANT VALLEY,SNYDER,OK,34.633333,-99.033333,1322,
07OR,BRUCE'S,MILWAUKIE,OR,45.421667,-122.62,250,
07PA,MALICKSON,PHOENIXVILLE,PA,40.16,-75.493333,315,
07PN,AT&T,HARRISBURG,PA,40.248333,-76.806667,460,
07Q,JACKSON LAKE,JACKSON LAKE,CA,39.461667,-120.56667,6650,
07R,BISHOP MUNI,BISHOP,TX,27.61,-97.751667,55,122.9
07S,DEER PARK,DEER PARK,WA,47.968333,-117.42167,2207,122.8
07TA,SALAIKA AVIATION,DANBURY,TX,29.24,-95.345,30,
07TX,PECKS,PRINCETON,TX,33.183333,-96.448333,660,
07V,CUCHARA VALLEY AT LA VETA,LA VETA,CO,37.523333,-105.01,7153,122.7
07VA,ALPHA HOTEL,CLOVER,VA,36.82,-78.783333,350,
07W,BRICKHOUSE FLD,BURGAW,NC,34.413333,-77.95,31,
07WA,DEACONESS MEDICAL CENTER,SPOKANE,WA,47.651667,-117.425,2110,
07WI,BARTELL STRIP,GENESSEE DEPOT,WI,42.965,-88.391667,990,
07Y,HILL CITY-QUADNA MOUNTAIN,HILL CITY,MN,46.955,-93.596667,1289,122.9
08A,WETUMPKA MUNI,WETUMPKA,AL,32.53,-86.328333,197,122.8
08AK,ATMAUTLUAK,ATMAUTLUAK,AK,60.866667,-162.27333,17,122.9
08B,MERRYMEETING FIELD,BOWDOINHAM,ME,44,-69.886667,65,122.8
08C,RIVERVIEW,JENISON,MI,42.936667,-85.805,603,122.9
08CA,PG & E CO. PLACERVILLE SVC CENTE,DIAMOND SPRINGS,CA,38.695,-120.82667,1810,
08CO,TRACT C-A-84 MESA AIRSTRIP,RANGELY,CO,39.946667,-108.43833,6550,
08D,STANLEY MUNI,STANLEY,ND,48.3,-102.40667,2239,122.9
08F,CITY OF COALGATE,COALGATE,OK,34.531667,-96.233333,615,122.9
08FD,SUNNILAND RANCH,OKEECHOBEE,FL,27.363333,-80.773333,65,
08G,SALT FORK LODGE,CAMBRIDGE,OH,40.111667,-81.526667,960,122.9
08GA,SAPELO ISLAND,DARIEN,GA,31.425,-81.286667,12,
08H,ROBBINS BEST WESTERN MOTEL,VANDALIA,IL,38.966667,-89.1,520,
08II,LAGRANGE HOSPITAL,LAGRANGE,IN,41.646667,-85.426667,943,
08IL,HARMS AIRSTRIP,TAMPICO,IL,41.576667,-89.793333,643,
08K,HARVARD STATE,HARVARD,NE,40.655,-98.075,1810,122.9
08KS,ALDERSON,BENNINGTON,KS,39.035,-97.58,1250,
08L,VERDUGO HILLS HOSPITAL,GLENDALE,CA,34.205,-118.21833,1400,
08LA,AIR OIL INC  NR 2,HARAHAN,LA,29.953333,-90.183333,4,
08M,CARTHAGE-LEAKE COUNTY,CARTHAGE,MS,32.761667,-89.53,454,122.9
08MI,EDWARD W SPARROW HOSPITAL,LANSING,MI,42.735,-84.536667,860,
08MN,CHRISTENSON POINT,CHISHOLM/HIBBING,MN,47.67,-93.055,1372,
08MS,WILLIAMS FIELD,COLDWATER,MS,34.66,-89.87,300,
08N,KELLER BROTHERS,LEBANON,PA,40.291667,-76.328333,550,122.9
08ND,BRECHT STRIP,GOLDEN VALLEY,ND,47.326667,-102.09833,1900,
08NJ,ST BARNABAS MEDICAL CENTER,LIVINGSTON,NJ,40.763333,-74.303333,429,
08NY,SHARON,SHARON SPRINGS,NY,42.778333,-74.578333,1508,122.8
08OH,KENLEY,HARTFORD,OH,41.291667,-80.563333,1230,
08OK,QUINTIN LITTLE COMPANY,ARDMORE,OK,34.196667,-97.145,923,
08PA,POCONO RACEWAY,POCONO PINES,PA,41.058333,-75.5,1812,
08PN,THOMSON,LANCASTER,PA,40.046667,-76.28,310,
08Q,KISTLER RANCH,JAMESTOWN,CA,37.86,-120.555,1025,
08TA,RANCHO DEL LAGO,FISCHER,TX,29.951667,-98.225,1208,
08TS,PUESTA DEL SOL,LA GLORIA,TX,26.888333,-98.506667,420,
08TX,CROSS WIND,WEATHERFORD,TX,32.858333,-97.748333,1040,
08U,STEVENS-CROSBY,NORTH FORK,NV,41.515,-115.86,6397,122.9
08VA,SPRINGWOOD AIRSTRIP,BUCHANAN,VA,37.553333,-79.75,1000,
08WA,MANCHESTER LABORATORY,MANCHESTER,WA,47.575,-122.54833,2,
08WI,PIERICK,HIGHLAND,WI,43.043333,-90.355,1225,
08X,CALUSA RANCH,MILES CITY,FL,26.055,-81.068333,15,
09A,BUTLER-CHOCTAW COUNTY,BUTLER,AL,32.12,-88.126667,134,122.8
09AK,LARSEN BAY,LARSEN BAY,AK,57.535,-153.97833,77,122.8
09C,AUSTIN LAKE,KALAMAZOO,MI,42.163333,-85.545,871,122.9
09CA,ESCALON,ESCALON,CA,37.845,-120.965,128,
09CO,COTTONWOOD FIELD,SWINK,CO,38.055,-103.65333,4180,
09E,LITTLE HILL MINES INC,ORACLE,AZ,32.59,-110.85333,3921,
09F,RUNNING M RANCH,GLEN ROSE,TX,32.266667,-97.866667,787,122.9
09FD,CHERYL-LANE LANDINGS,BUSHNELL,FL,28.671667,-82.086667,71,
09FL,R V JORDAN,JAY,FL,30.901667,-87.175,250,
09G,MASON JEWETT FIELD,MASON,MI,42.565,-84.423333,919,122.7
09GA,SUNBELT STRIP,MOULTRIE,GA,31.111667,-83.683333,230,
09H,HULCHER RLA,VIRDEN,IL,39.496667,-89.785,670,
09I,DELPHOS,DELPHOS,OH,40.821667,-84.311667,785,122.8
09II,GIBBONS FIELD,VALEENE,IN,38.446667,-86.445,880,
09IL,SILVER CROSS HOSPITAL,JOLIET,IL,41.536667,-88.053333,610,
09IS,SWEDISH AMERICAN,ROCKFORD,IL,42.265,-89.075,874,
09J,JEKYLL ISLAND,JEKYLL ISLAND,GA,31.075,-81.428333,12,123
09K,SARGENT MUNI,SARGENT,NE,41.636667,-99.34,2313,122.9
09KS,COFFMAN,WELLSVILLE,KS,38.706667,-95.138333,970,
09LA,ERA HELICOPTERS FOURCHON HELIBAS,GRAND ISLE,LA,29.123333,-90.201667,2,
09LL,PINE HILL,CAPRON,IL,42.468333,-88.743333,1000,
09M,CHARLESTON MUNI,CHARLESTON,MS,33.991667,-90.078333,175,122.9
09MI,MICHIGAN NATIONAL GUARD HEADQUAR,LANSING,MI,42.708333,-84.56,842,
09MN,W JOHNSON FIELD,HAZEL RUN,MN,44.78,-95.663333,1060,
09MO,HOGUE FARM,WILLARD,MO,37.378333,-93.363333,1210,
09N,AIRHAVEN,STAATSBURG,NY,41.833333,-73.876667,450,122.9
09ND,FEREBEE STRIP,HALLIDAY,ND,47.363333,-102.35833,2160,
09NE,SUMMER HILL FARM,BENNINGTON,NE,41.333333,-96.193333,1250,
09NJ,STONEBRIDGE FARM HELISTOP,SOMERVILLE,NJ,40.653333,-74.686667,100,
09NY,WESTMORELAND,SHELTER ISLAND,NY,41.066667,-72.35,24,
09OH,PINE ACRES,HOPEDALE,OH,40.35,-80.905,1240,
09OR,MID-COLUMBIA MEDICAL CENTER,THE DALLES,OR,45.656667,-121.145,300,
09PA,EAGLE FIELD,PORT MATILDA,PA,40.826667,-77.988333,1780,
09PN,HUNDLEY RESIDENCE,KINTERSVILLE,PA,40.561667,-75.143333,480,
09R,TYLER COUNTY,WOODVILLE,TX,30.775,-94.458333,388,122.9
09S,SULLIVAN LAKE STATE,METALINE FALLS,WA,48.841667,-117.285,2614,122.9
09TA,ROCKIN 7 RANCH,FRANKLIN,TX,31.16,-96.436667,450,
09TS,PITCOCK ROSILLOS MOUNTAIN RANCH,MARATHON,TX,29.481667,-103.165,3100,
09TX,SMOKEY MTN RANCH,SHEFFIELD,TX,30.738333,-102.02333,2522,
09V,FOWLER,FOWLER,CO,38.073333,-104.045,4428,
09VA,ALUM RIDGE,FLOYD,VA,36.976667,-80.493333,2375,
09WA,HOLY FAMILY HOSPITAL,SPOKANE,WA,47.71,-117.40667,2081,
09WI,PARKWAY FARM STRIP,HOLMEN,WI,44.003333,-91.308333,705,
09X,DELTA REGIONAL MEDICAL CENTER,GREENVILLE,MS,33.41,-91.035,123,
09XS,BAPTIST MEDICAL CENTER,SAN ANTONIO,TX,29.433333,-98.491667,710,
09Y,WIPLINE,INVER GROVE HGTS,MN,44.816667,-93.015,687,122.9
0A1,PROPST,CONCORD,NC,35.391667,-80.575,621,
0A2,HESTER MEMORIAL,CALHOUN FALLS,SC,34.09,-82.568333,517,122.9
0A3,SMITHVILLE MUNI,SMITHVILLE,TN,35.985,-85.81,1084,122.8
0A4,JOHNSON CITY,JOHNSON CITY,TN,36.363333,-82.308333,1550,122.8
0A5,ZACK,RESACA,GA,34.61,-84.978333,713,
0A6,GASTONIA MUNI,GASTONIA,NC,35.2,-81.15,797,123
0A7,HENDERSONVILLE,HENDERSONVILLE,NC,35.308333,-82.433333,2084,123
0A8,BIBB COUNTY,CENTREVILLE,AL,32.936667,-87.088333,251,122.9
0A9,ELIZABETHTON MUNI,ELIZABETHTON,TN,36.371667,-82.173333,1585,123
0AK1,ANDERSON LAKE STRIP,WASILLA,AK,61.501667,-149.31833,420,122.9
0AK2,CAPE SIMPSON,CAPE SIMPSON,AK,71.058333,-154.75,11,
0AK3,PARKER LAKE,MONTANA CREEK,AK,62.036667,-150.49333,250,
0AK6,VICTORY,VICTORY BIBLE CAMP,AK,61.803333,-147.94333,1800,
0AR1,HOOTERVILLE SOUTH,CENTERVILLE,AR,35.095,-93.201667,370,
0AR2,MISSION FIELD-MAROTTI MEMORIAL,CRAWFORDSVILLE,AR,35.266667,-90.35,217,
0AS0,SYCAMORE CREEK,FOUNTAIN HILLS,AZ,33.661667,-111.61667,1560,
0AZ1,TAYLOR FIELD,MARANA,AZ,32.301667,-111.32333,2130,
0AZ2,VALLEY LUTHERAN HOSPITAL (SECOND,MESA,AZ,33.41,-111.68833,1405,
0AZ3,1ST STREET/CENTER PARKING GARAGE,MESA,AZ,33.416667,-111.83333,1263,
0AZ4,FLYING BUCKET RANCH,MOBILE,AZ,32.981667,-112.28667,1505,
0AZ5,CASTLE WELL,MORRISTOWN,AZ,33.866667,-112.60333,2080,
0AZ6,ST JOSEPH'S HOSPITAL,PHOENIX,AZ,33.481667,-112.07667,1117,
0AZ7,SUNSTATE,PHOENIX,AZ,33.443333,-111.96333,1180,
0AZ8,BURNS INTERNATIONAL INC,PHOENIX,AZ,33.5,-112.075,1120,
0AZ9,AIR COMMERCE CENTER,SCOTTSDALE,AZ,33.616667,-111.92,1440,
0B0,SALINE MEMORIAL HOSPITAL,BENTON,AR,34.573333,-92.583333,430,
0B1,COL DYKE FIELD,BETHEL,ME,44.425,-70.808333,654,122.9
0B2,BREWER,BREWER,ME,44.763333,-68.768333,124,122.9
0B3,JOHNSON FARM LINES,CLARKSVILLE,AR,35.571667,-93.575,775,
0B4,HARTINGTON MUNI,HARTINGTON,NE,42.601667,-97.253333,1383,122.9
0B5,TURNERS FALLS,MONTAGUE,MA,42.591667,-72.523333,356,123
0B7,WARREN-SUGARBUSH,WARREN,VT,44.116667,-72.826667,1470,
0B8,ELIZABETH FIELD,FISHERS ISLAND,NY,41.251667,-72.031667,9,122.8
0C0,DACY,HARVARD,IL,42.405,-88.633333,913,122.9
0C1,PONTIAC MUNI,PONTIAC,IL,40.858333,-88.638333,645,122.8
0C2,HINCKLEY,HINCKLEY,IL,41.771667,-88.703333,760,122.9
0C3,WILHELMI FIELD,JOLIET,IL,41.483333,-88.083333,635,122.9
0C5,CANADIAN LAKES,MECOSTA,MI,43.576667,-85.28,960,122.9
0C6,ST GEORGE,MANTENO /ST GEORGE/,IL,41.206667,-87.785,665,
0C7,GRANDPAS' FARM MENDOTA,MENDOTA,IL,41.521667,-89.133333,727,122.9
0C8,CUSHING FIELD LTD,NEWARK,IL,41.52,-88.605,640,122.7
0C9,COACH & PADDOCK,CLINTON,NJ,40.638333,-74.975,320,122.9
0CA1,NORTHSIDE AIRPARK,SANTA MARIA,CA,34.988333,-120.45833,190,
0CA2,V A MED CTR WEST L.A.,SANTA MONICA,CA,34.048333,-118.455,250,
0CA3,CRAWFORD,SANTA YNEZ,CA,34.586667,-120.01333,570,
0CA4,SHEPHERD RANCH,SANTA YNEZ,CA,34.621667,-120.065,660,
0CA5,HOFFMAN PVT,SANTA YSABEL,CA,33.143333,-116.745,3100,
0CA6,INDIAN RANCH,LODOGA,CA,39.268333,-122.48,1262,
0CA7,R I SEAL BEACH HELISTOP B80,SEAL BEACH,CA,33.756667,-118.08833,158,
0CA8,WARD RANCH,AGUANGA,CA,33.428333,-116.84333,2500,
0CA9,BLECH RANCH,SHANDON,CA,35.595,-120.33833,1140,
0CD3,BRANCH'S,KERSEY,CO,40.348333,-104.52833,4635,
0CL1,KREY FIELD,ADELANTO,CA,34.57,-117.55333,3020,
0CL2,PARKING LOT,CHULA VISTA,CA,32.593333,-117.085,0,
0CL3,JOHN NICHOL'S FIELD,CHULA VISTA,CA,32.633333,-116.89333,490,
0CL4,GLEN FED,GLENDALE,CA,34.156667,-118.255,770,
0CL5,THE ATRIUM,IRVINE,CA,33.67,-117.85833,46,
0CL6,BOHUNK'S AIRPARK,LANCASTER,CA,34.695,-118.28333,2410,
0CL7,GOOD SAMRITAN,LOS ANGELES,CA,34.055,-118.265,473,
0CL8,TERA SKYPARK,RIDGECREST,CA,35.591667,-117.63333,2490,
0CL9,SCE SAN JACINTO VALLEY SERVICE C,ROMOLAND,CA,33.741667,-117.15167,1482,
0CO0,LONGMONT UNITED HOSPITAL,LONGMONT,CO,40.178333,-105.125,5047,
0CO1,DAVE'S,LOUISVILLE,CO,40.033333,-105.12333,5170,
0CO3,GREGGS NR 1,BENNETT,CO,39.89,-104.545,5373,
0CO5,MACK MESA,MACK,CO,39.266667,-108.86333,4724,122.8
0CO7,CENTURY HELICOPTERS,FORT COLLINS,CO,40.585,-105.04,4935,
0CO8,CARTWHEEL,MEAD,CO,40.208333,-105.01333,5010,
0CO9,VAN TREESE,MONTE VISTA,CO,37.658333,-106.03333,7613,
0CT0,SHARON HOSPITAL,SHARON,CT,41.881667,-73.481667,640,
0CT1,BRISTOL-MYERS SQUIBB COMPANY,WALLINGFORD,CT,41.485,-72.756667,350,
0CT2,WINDHAM HOSPITAL,WILLIMANTIC,CT,41.716667,-72.226667,330,
0CT3,N B G H,NEW BRITAIN,CT,41.661667,-72.788333,431,
0CT4,BURKE,PROSPECT,CT,41.506667,-72.94,400,
0CT5,ST FRANCIS HOSPITAL,HARTFORD,CT,41.775,-72.698333,184,
0CT6,MIDDLETOWN,MIDDLETOWN,CT,41.596667,-72.705,113,
0CT7,BRIDGEPORT HOSPITAL,BRIDGEPORT,CT,41.188333,-73.166667,80,
0CT8,DANBURY HOSPITAL,DANBURY,CT,41.41,-73.438333,503,
0CT9,HARTFORD HOSPITAL,HARTFORD,CT,41.755,-72.678333,211,
0D0,FORT HILL,WEST BLOOMFIELD,NY,42.901667,-77.548333,915,
0D1,SOUTH HAVEN AREA REGIONAL,SOUTH HAVEN,MI,42.351667,-86.255,663,122.8
0D2,TECUMSEH PRODUCTS,TECUMSEH,MI,42.033333,-83.88,791,
0D3,VAN BUREN COUNTY MEMORIAL HOSPIT,CLINTON,AR,35.576667,-92.453333,700,
0D4,CAMP VERNON,WESTFIELD,NY,42.356667,-79.548333,655,122.9
0D5,HILL TOP AIRPARK,WOLCOTT,NY,43.166667,-76.808333,465,
0D7,ADA,ADA,OH,40.79,-83.828333,949,122.8
0D8,GETTYSBURG MUNI,GETTYSBURG,SD,44.988333,-99.953333,2061,122.8
0D9,AIR PARK NORTH,ALBA,MI,44.958333,-84.958333,1173,
0.00E+00,MORIARTY,MORIARTY,NM,34.985,-106.005,6201,122.9
0.00E+00,PRICE RANCH,MOUNT DORA,NM,36.565,-103.49,5631,122.9
0.00E+00,WAIDS AIRPARK,ORGAN,NM,32.5,-106.68667,4360,
0.00E+00,CONWAY REGIONAL HOSPITAL,CONWAY,AR,35.085,-92.458333,385,
0.00E+00,YELL COUNTY HOSPITAL,DANVILLE,AR,35.055,-93.388333,340,
0.00E+00,QUEMADO,QUEMADO,NM,34.34,-108.515,6917,
0.00E+00,NEGRITO AIRSTRIP,RESERVE,NM,33.521667,-108.54333,8143,
0.00E+00,CROWNPOINT,CROWNPOINT,NM,35.716667,-108.2,6660,122.8
0.00E+00,ROY MUNI,ROY,NM,35.936667,-104.19333,5892,122.9
0F0,HORNE,WEBBERS FALLS,OK,35.513333,-95.138333,480,
0F1,COMMUNITY HOSPITAL OF DE QUEEN,DE QUEEN,AR,34.046667,-94.355,400,
0F2,BOWIE MUNI,BOWIE,TX,33.601667,-97.775,1101,122.8
0F5,DALLAS COUNTY HOSPITAL,FORDYCE,AR,33.811667,-92.425,300,
0F6,GORMAN,GORMAN,TX,32.205,-98.665,1452,
0F7,FOUNTAINHEAD LODGE AIRPARK,EUFAULA,OK,35.388333,-95.601667,670,122.8
0F8,WILLIAM R. POGUE MUNI,SAND SPRINGS,OK,36.175,-96.151667,891,122.7
0F9,TISHOMINGO AIRPARK,TISHOMINGO,OK,34.196667,-96.675,647,122.9
0FD0,BIG 'G',ORMOND BEACH,FL,29.266667,-81.23,40,
0FD1,INTERNATIONAL HELICOPTERS,PANAMA CITY BEACH,FL,30.213333,-85.871667,20,
0FD2,JOE ROBBIE STADIUM,MIAMI,FL,25.96,-80.236667,8,
0FD3,KENNEDY,REDDICK,FL,29.361667,-82.15,82,
0FD4,DUE PROCESS STABLES,REDDICK,FL,29.361667,-82.208333,100,
0FD5,WALLACE 1,SARASOTA,FL,27.273333,-82.505,20,
0FD6,FULTON,SEBASTIAN,FL,27.908333,-80.486667,0,
0FD7,BIG SKY AIRPARK,ST CLOUD,FL,28.261667,-81.315,75,
0FD8,SANDY ACRES,UMATILLA,FL,28.976667,-81.736667,125,
0FD9,TURNER FARMS,DE FUNIAK SPRINGS,FL,30.651667,-86.11,290,
0G0,NORTH BUFFALO SUBURBAN,LOCKPORT,NY,43.103333,-78.703333,587,123
0G1,HUNTSVILLE MEMORIAL HOSPITAL,HUNTSVILLE,AR,36.093333,-93.741667,1495,
0G2,JENKINS,FREMONT,OH,41.31,-83.116667,655,
0G5,SKY PORT LODGE,GRAND MARAIS,MN,47.816667,-90.383333,1635,122.8
0G6,WILLIAMS COUNTY,BRYAN,OH,41.466667,-84.506667,731,122.8
0G7,FINGERLAKES REGIONAL,SENECA FALLS,NY,42.88,-76.781667,491,122.8
0G8,ALLIANCE,ALLIANCE,OH,40.905,-81.065,1077,
0G9,MAGNOLIA HOSPITAL,MAGNOLIA,AR,33.273333,-93.24,310,
0GA0,HALLS FLYING RANCH,HAMPTON,GA,33.356667,-84.366667,800,
0GA1,MUSTANG FIELD,HARTWELL,GA,34.478333,-82.896667,693,
0GA2,AIRNAUTIQUE  INC.,HARTWELL,GA,34.378333,-82.945,720,
0GA3,AYRESOUTH,TEMPLE,GA,33.77,-85.06,1287,
0GA4,PARADISE FALLS,HIGH SHOALS,GA,33.813333,-83.505,736,
0GA5,BIG CANOE,JASPER,GA,34.455,-84.288333,1475,
0GA6,SUNSET STRIP,JERSEY,GA,33.733333,-83.818333,780,
0GA7,HICKORY LEVEL AIRFIELD,TEMPLE,GA,33.683333,-85,1080,
0GA8,PASO FINO FARM,VALDOSTA,GA,30.886667,-83.416667,200,
0GA9,BOBBY MAXWELL AIRSTRIP,LEXINGTON,GA,33.806667,-83.063333,700,
0H0,ROBINSON RLA,GLENARM,IL,39.655,-89.651667,600,
0H2,HAMMET,GODFREY,IL,38.953333,-90.163333,590,
0H3,J B,WOLF POINT,MT,48.388333,-105.335,2710,122.9
0H4,GLATTHAAR,GRANDVIEW,IL,39.525,-87.806667,765,
0H5,HSCMH,MALVERN,AR,34.358333,-92.788333,350,
0H6,WOODRUFF COUNTY HOSPITAL & NURSI,MC CRORY,AR,35.256667,-91.221667,200,
0H9,EDW A UTLAUT MEML,GREENVILLE,IL,38.905,-89.401667,585,
0I0,PENNSVILLE,PENNSVILLE,OH,39.573333,-81.855,990,122.9
0I1,HUESTON WOODS LODGE,OXFORD,OH,39.583333,-84.763333,920,
0I2,BRAZIL CLAY COUNTY,BRAZIL,IN,39.476667,-87.1,645,122.8
0I3,MOUNT STERLING-MONTGOMERY COUNTY,MOUNT STERLING,KY,38.058333,-83.98,1020,122.8
0I4,BELLE PLAINE MUNI,BELLE PLAINE,IA,41.876667,-92.285,771,122.9
0I8,CYNTHIANA-HARRISON COUNTY,CYNTHIANA,KY,38.366667,-84.283333,722,122.8
0IA0,KNOXVILLE AREA COMMUNITY HOSPITA,KNOXVILLE,IA,41.316667,-93.096667,927,
0IA1,ST ANTHONY REGIONAL HOSPITAL,CARROLL,IA,42.058333,-94.868333,1300,
0IA2,AUDUBON COUNTY MEMORIAL HOSPITAL,AUDUBON,IA,41.715,-94.938333,1320,
0IA3,HAWKEYE,WATERLOO,IA,42.435,-92.328333,883,
0IA4,IPS,SIOUX CITY,IA,42.495,-96.408333,1180,
0IA5,MOORE PRIVATE,MILLERTON,IA,40.871667,-93.263333,1060,
0IA6,RINEHART,VICTOR,IA,41.66,-92.29,920,
0IA7,CROMWELL,CROMWELL,IA,41.038333,-94.466667,1300,
0IA8,HANNEN,CENTER POINT,IA,42.226667,-91.751667,895,
0IA9,ARMY RESERVE,MIDDLETON,IA,40.833333,-91.3,725,
0II0,CHUCK'S,ALBANY,IN,40.26,-85.253333,955,
0II1,UNSICKER,BREMEN,IN,40.428333,-86.153333,816,
0II2,CREIGHTON,BREMEN,IN,41.456667,-86.125,820,
0II3,MILLER STRIP,BUNKER HILL,IN,40.628333,-86.038333,810,
0II4,HOOK,BUTLER,IN,41.398333,-84.836667,850,
0II5,MARSHALL FIELD,CHALMERS,IN,40.66,-86.856667,705,
0II6,KROPF,GOSHEN,IN,41.643333,-85.83,810,
0II7,FROST FIELD,GREENFIELD,IN,39.795,-85.786667,900,
0II8,SUTTON'S FIELD,LOWELL,IN,41.325,-87.476667,740,
0II9,WINTERS,HALL,IN,39.535,-86.576667,755,
0IL1,LOYOLA UNIVERSITY MEDICAL CENTER,BROADVIEW,IL,41.861667,-87.836667,623,
0IL2,WILKEN,DANFORTH,IL,40.846667,-88.048333,642,
0IL3,FLYING B RANCH,DANVILLE,IL,40.156667,-87.675,696,
0IL4,PIELET - JOLIET,JOLIET,IL,41.516667,-88.09,540,
0IL5,MARX V STOTT,DE KALB,IL,41.981667,-88.811667,885,
0IL6,KISHWAUKEE COMM HEALTH,DE KALB,IL,41.963333,-88.716667,852,
0IL7,DIEDRICH,DE KALB,IL,41.873333,-88.835,870,
0IL8,WALTER,DE KALB,IL,41.873333,-88.723333,890,
0IL9,JACK W. WATSON,DE KALB,IL,41.855,-88.786667,880,
0IN1,SNIDER FIELD,DECKER,IN,38.5,-87.596667,400,
0IN2,THE LAZY K,TOCSIN,IN,40.828333,-85.086667,835,
0IN3,GRAVES LANDING STRIP,WINAMAC,IN,41.116667,-86.666667,704,
0IN4,AIR PARK FIELD,WOODBURN,IN,41.128333,-84.946667,750,
0IN5,BYRNE FIELD,BYRNEVILLE,IN,38.328333,-86.033333,800,
0IN7,ROTO-WHIRL/HOLIDAY,INDIANAPOLIS,IN,39.923333,-86.226667,875,
0IN8,ROTO-WHIRL/VANTAGE,INDIANAPOLIS,IN,39.836667,-86.118333,726,
0IN9,PARRISH,MOUNT VERNON,IN,37.993333,-87.951667,390,
0IS0,FRANCISCAN,ROCK ISLAND,IL,41.483333,-90.57,648,
0IS1,MATSUSHITA ELECTRIC CORP OF AMER,FRANKLIN PARK,IL,41.93,-87.861667,640,
0IS2,EVANSTON/GLENBROOK,GLENVIEW,IL,42.093333,-87.853333,678,
0IS3,MAGIC CARPET,HUNTLEY,IL,42.171667,-88.366667,900,
0IS4,DAWSON FARMS,LOVINGTON,IL,39.763333,-88.671667,670,
0IS5,MUELLER,NEW DOUGLAS,IL,38.935,-89.625,595,
0IS7,ST MARY HOSPITAL EMERGENCY,QUINCY,IL,39.95,-91.406667,650,
0IS8,BLESSING HOSPITAL,QUINCY,IL,39.936667,-91.398333,650,
0IS9,BERNARDIN,WEST BROOKLYN,IL,41.708333,-89.203333,830,
0J0,ABBEVILLE MUNI,ABBEVILLE,AL,31.6,-85.238333,468,122.8
0J1,NEWPORT HOSPITAL & CLINIC,NEWPORT,AR,35.608333,-91.255,237,
0J3,JRMC,PINE BLUFF,AR,34.188333,-92.018333,227,
0J4,FLORALA MUNI,FLORALA,AL,31.043333,-86.311667,313,122.8
0J5,WILSON FIELD,FOLEY,AL,30.416667,-87.683333,83,
0J6,HEADLAND MUNI,HEADLAND,AL,31.365,-85.31,359,122.9
0J7,LOGAN FIELD/MUNI/,SAMSON,AL,31.103333,-86.061667,190,122.9
0J8,FLYING TEN,ARCHER,FL,29.618333,-82.508333,85,122.9
0J9,CALHOUN COUNTY,BLOUNTSTOWN,FL,30.446667,-85.025,56,122.9
0K0,GRIFFIN FIELD,WALSH,CO,37.391667,-102.28,3964,
0K2,COOCH LANDING AREA,ATWOOD,IL,39.841667,-88.458333,650,
0K5,JERSEYVILLE AVIATION INC,JERSEYVILLE,IL,39.095,-90.313333,604,
0K6,DOBIE'S,INOLA,OK,36.166667,-95.5,610,122.95
0K7,HUMBOLDT MUNI,HUMBOLDT,IA,42.736667,-94.245,1110,122.8
0K8,BARRY,BARRY,IL,39.688333,-91.031667,753,
0KS0,J V RANCH,OSAGE CITY,KS,38.633333,-95.925,1180,
0KS1,SHOMIN,OSKALOOSA,KS,39.216667,-95.336667,1100,
0KS2,KELLIE MANN AIRFIELD,OTTAWA,KS,38.56,-95.308333,1045,
0KS3,CAMP CHIPPEWA,OTTAWA,KS,38.566667,-95.366667,1120,
0KS4,SNOOPYS,OVERBROOK,KS,38.808333,-95.598333,1090,
0KS5,MAJESKI,PAOLA,KS,38.603333,-94.925,920,
0KS6,KENDRIGAN,PECK,KS,37.451667,-97.318333,1240,
0KS7,MONO AIRCRAFT,CHENEY,KS,37.693333,-97.886667,1450,
0KS9,LMN 120,DOUGLAS,KS,37.516667,-96.92,1330,
0L0,HARVARD,YERMO,CA,34.961667,-116.675,1818,
0L1,NEW ORLEANS DOWNTOWN,NEW ORLEANS,LA,29.948333,-90.081667,0,123.05
0L2,CALIENTE FLIGHT STRIP,CALIENTE,NV,37.6,-114.855,4864,122.9
0L4,LIDA JUNCTION,GOLDFIELD,NV,37.485,-117.19167,4684,122.9
0L5,GOLDFIELD,GOLDFIELD,NV,37.718333,-117.23833,5680,122.9
0L6,HUMANA HOSPITAL-WINN PARISH,WINNFIELD,LA,31.923333,-92.645,140,122.9
0L7,JEAN,JEAN,NV,35.77,-115.32833,2833,122.9
0L9,ECHO BAY,OVERTON,NV,36.311667,-114.46333,1535,122.8
0LA0,WEST HACKBERRY,HACKBERRY,LA,30.008333,-93.4,10,
0LA1,DOUBLE H RANCH,GONZALES,LA,30.23,-90.973333,15,
0LA2,DON BABIN-PRIVATE,GONZALES,LA,30.278333,-90.963333,17,
0LA3,W-1 TANK BATTERY,VENICE,LA,29.09,-89.286667,0,
0LA4,ST JOHN THE BAPTIST PARISH,RESERVE,LA,30.088333,-90.581667,5,122.8
0LA5,CONOCO INC,GRAND ISLE,LA,29.258333,-89.963333,3,
0LA6,FREEPORT SULPHUR,GRAND ISLE,LA,29.258333,-89.96,3,
0LA7,EXXON,GRAND ISLE,LA,29.255,-89.968333,6,
0LA8,JACKSON PARISH HOSPITAL,JONESBORO,LA,32.251667,-92.713333,183,
0LA9,TELEPHONE COMPANY,GRETNA,LA,29.928333,-90.396667,4,
0LL2,MURK'S STRIP,ST AUGUSTINE,IL,40.738333,-90.38,700,
0LL5,BUSBOOM RLA,ST JOSEPH,IL,40.11,-88.078333,675,
0LL6,GORD,SANDWICH,IL,41.698333,-88.608333,710,
0LL7,HOSPITAL,SANDWICH,IL,41.65,-88.616667,670,
0LL8,IMMKE,SAUNEMIN,IL,40.833333,-88.378333,660,
0LL9,SAVANNA ARMY DEPOT HELIPAD,SAVANNA,IL,42.183333,-90.255,650,
0M0,BILLY FREE MUNICIPAL,DUMAS,AR,33.885,-91.535,163,122.8
0M1,SCOTT FIELD,PARSONS,TN,35.638333,-88.128333,520,122.8
0M2,REELFOOT LAKE,TIPTONVILLE,TN,36.475,-89.346667,289,122.8
0M3,JOHN A BAKER FLD,HOHENWALD,TN,35.546667,-87.6,973,122.8
0M4,BENTON COUNTY,CAMDEN,TN,36.011667,-88.123333,468,122.8
0M5,HUMPHREYS COUNTY,WAVERLY,TN,36.116667,-87.738333,756,122.8
0M6,PANOLA COUNTY,BATESVILLE,MS,34.366667,-89.9,219,122.8
0M7,WORTH JAMES RANCH,BOONEVILLE,AR,35.083333,-94.116667,650,
0M8,BYERLEY,LAKE PROVIDENCE,LA,32.826667,-91.188333,106,122.9
0M9,DELHI MUNI,DELHI,LA,32.41,-91.498333,91,122.9
0MA0,GEORGE H CROSMAN USAR CENTER,TAUNTON,MA,41.915,-71.108333,80,
0MA1,ATTLEBORO RESERVE CENTER,ATTLEBORO,MA,41.931667,-71.291667,130,
0MA2,LEOMINSTER HOSPITAL,LEOMINSTER,MA,42.541667,-71.763333,450,
0MA3,A-COPY,WESTWOOD,MA,42.201667,-71.156667,59,
0MA4,BOSTON CITY HOSPITAL,BOSTON,MA,42.333333,-71.073333,152,
0MA5,BROCKTON USAR CENTER,BROCKTON,MA,42.056667,-71.056667,85,
0MA6,WBZ,BOSTON,MA,42.365,-71.133333,9,
0MA7,MILLIPORE,BEDFORD,MA,42.485,-71.271667,180,
0MA8,TEXTRON/EVERETT,EVERETT,MA,42.405,-71.07,40,
0MA9,LLEIA KYLE O'MEARA,WESTMINSTER,MA,42.503333,-71.908333,1250,
0MD0,NORTH ARUNDEL HOSPITAL,GLEN BURNIE,MD,39.138333,-76.623333,77,
0MD1,TAYLOR FIELD,SUDLERSVILLE,MD,39.186667,-75.793333,75,
0MD2,SQUIER LANDING,COBB ISLAND,MD,38.288333,-76.866667,16,
0MD3,THE JOHNS HOPKINS HOSPITAL,BALTIMORE,MD,39.296667,-76.593333,260,
0MD4,POND VIEW PVT,CHESTERTOWN,MD,39.266667,-76.186667,47,
0MD5,GREATER LAUREL BELTSVILLE HOSPIT,LAUREL,MD,39.088333,-76.881667,285,
0MD6,WALTERS,MOUNT AIRY,MD,39.381667,-77.105,750,
0MD7,THE ASPEN INSTITUTE,QUEENSTOWN,MD,38.91,-76.12,20,
0MD8,SECURITY FORD,ARBUTUS,MD,39.246667,-76.676667,30,
0MD9,CALVERT MEMORIAL HOSPITAL,PRINCE FREDERICK,MD,38.561667,-76.596667,143,
0MI1,SUGAR SPRINGS,GLADWIN,MI,44.14,-84.438333,940,
0MI2,STIER AIRSTRIP,GLENNIE,MI,44.521667,-83.683333,850,
0MI3,KELLEYS,GRAYLING,MI,44.633333,-84.483333,1000,
0MI4,LESTERSON FIELD,GWINN,MI,46.27,-87.386667,1120,
0MI5,GROGNET FLYING SERVICE,HOUGHTON,MI,47.116667,-88.533333,603,
0MI6,YOUNG'S,HULBERT,MI,46.388333,-85.183333,800,
0MI7,EDWARD F JOHNSON,ISHPEMING,MI,46.345,-87.788333,1446,
0MI8,TWIN LAKES,LEWISTON,MI,44.9,-84.3,1275,
0MI9,HENRY FORD HOSPITAL,DETROIT,MI,42.368333,-83.085,633,
0MN0,WINNER'S LANDING,ST PAUL PARK,MN,44.796667,-92.983333,690,
0MN1,BRINKMAN,ST PETER,MN,44.261667,-94.07,1020,
0MN2,GRINDSTONE LAKE,SANDSTONE,MN,46.133333,-93.003333,1025,
0MN3,KJOSTAD LAKE SEAPLANE BASE,BUYCK,MN,48.105,-92.621667,1334,
0MN4,PAUL'S,NISSWA,MN,46.476667,-94.303333,1200,
0MN5,PANKRATZ,SPRINGFIELD,MN,44.306667,-94.916667,1033,
0MN6,MATSON FLD,SPRING VALLEY,MN,43.661667,-92.405,1365,
0MN7,ELY BLOOMENSON,ELY,MN,47.9,-91.873333,1450,
0MN8,KELLER,STILLWATER,MN,45.135,-92.86,990,
0MO0,FERROS RANCH-AERO,CLINTON,MO,38.41,-93.85,775,
0MO1,FLYING G,CREIGHTON,MO,38.545,-94.095,920,
0MO2,SHORT-N-RUFF,CALEDONIA,MO,37.786667,-90.78,950,
0MO3,ARVIN RANCH,DREXEL,MO,38.44,-94.593333,1000,
0MO4,BERT WALTER BERKOWITZ,KANSAS CITY,MO,39.085,-94.573333,890,
0MO5,JOE D LEWIS,EDINA,MO,40.133333,-92.1,780,
0MO6,HALL,EDINA,MO,40.116667,-92.266667,850,
0MO7,ST JOSEPH HOSPITAL WEST,LAKE SAINT LOUIS,MO,38.803333,-90.758333,500,
0MO8,SLOAN'S,ELSBERRY,MO,39.14,-90.736667,437,
0MO9,EMERSON,FERGUSON,MO,38.73,-90.278333,575,
0MS0,SHERIFF'S HELIPORT-BILOXI JAIL,BILOXI,MS,30.4,-88.888333,30,
0MS1,FRANKLIN FIELD,MEADVILLE,MS,31.425,-90.903333,200,
0MS2,MORGAN FIELD,SEMINARY,MS,31.541667,-89.391667,300,
0MS4,SHERIFF'S COURTHOUSE,GULFPORT,MS,30.376667,-89.086667,50,
0MS5,LEWIS AIR SERVICE,LELAND,MS,33.391667,-90.916667,120,
0MS6,LEVERT,PASS CHRISTIAN,MS,30.301667,-89.235,25,
0MS7,HALE FIELD,PONTOTOC,MS,34.343333,-89.143333,346,
0MS8,CATFISH POINT,BENOIT,MS,33.7,-91.165,154,
0MS9,SHENANDOAH VALLEY FARMS,HOUSTON,MS,33.8,-89.026667,300,
0MU0,EAGLE FIELD,ELLINGTON,MO,37.235,-91.093333,784,
0MU1,SUNDERLAND,AVILLA,MO,37.246667,-94.173333,1027,
0N2,O AND G,TORRINGTON,CT,41.773333,-73.116667,600,
0N3,AMI ST MARY'S REGIONAL MEDICAL C,RUSSELLVILLE,AR,35.283333,-93.15,360,
0N4,CHANDELLE ESTATES,DOVER,DE,39.201667,-75.485,22,122.8
0N5,DELDOT HELISTOP,DOVER,DE,39.15,-75.505,30,123
0N6,HENDERSON AVIATION,FELTON,DE,39.013333,-75.533333,50,123
0N7,WARRINGTON FIELD,SELBYVILLE,DE,38.463333,-75.175,26,
0N8,WHITE COUNTY MEMORIAL HOSPITAL,SEARCY,AR,35.251667,-91.691667,273,
0N9,SLATER FLD,FEDERALSBURG,MD,38.756667,-75.753333,45,
0NA1,GOERGER,BARNEY,ND,46.245,-97.038333,1045,
0NA2,BENSEN AIRSTRIP,HORACE,ND,46.765,-96.928333,910,
0NA3,KASOWSKI,MAPLETON,ND,46.901667,-97.098333,913,
0NA4,KREIDELCAMP,VALLEY CITY,ND,46.805,-97.905,1480,
0NA5,SORLIE,MADDOCK,ND,48.001667,-99.563333,1580,
0NA6,A.X. RANCH AIRSTRIP,RICHARDTON,ND,46.973333,-102.29833,2080,
0NA7,STEVENS STRIP,UNDERWOOD,ND,47.398333,-101.07333,1935,
0NA8,SCHERESKY AIRSTRIP,BENEDICT,ND,47.875,-101.145,2150,
0NA9,BOYD'S TURF,GOLVA,ND,46.75,-103.80167,2779,
0NC0,WAYNE MEMORIAL HOSPITAL INC.,GOLDSBORO,NC,35.398333,-77.95,106,
0NC1,BEARWALLOW FARM,HENDERSONVILLE,NC,35.456667,-82.375,3608,
0NC2,MOORE REGIONAL HOSPITAL,PINEHURST,NC,35.205,-79.456667,460,
0NC3,WASHINGTON COUNTY HOSPITAL,PLYMOUTH,NC,35.875,-76.7,19,
0NC4,WAKE MEDICAL CENTER,RALEIGH,NC,35.786667,-78.586667,245,
0NC5,NASH GENERAL HOSPITAL,ROCKY MOUNT,NC,35.975,-77.851667,150,
0NC6,OUR COMMUNITY HOSPITAL,SCOTLAND NECK,NC,36.131667,-77.418333,113,
0NC7,UNNAMED,GREENSBORO,NC,36.088333,-79.923333,853,
0NC8,DOUBLE CREEK RANCH,CLEVELAND,NC,35.755,-80.735,830,
0NC9,MARIA PARHAM HOSPITAL,HENDERSON,NC,36.33,-78.45,450,
0ND0,GILBERTSON FIELD,FLORA,ND,47.93,-99.4,1550,
0ND2,SWENSON,GARDNER,ND,47.171667,-96.84,877,
0ND5,MINNKOTA POWER,GRAND FORKS,ND,47.936667,-97.051667,833,
0ND6,SCHUMACHER STRIP,HAGUE,ND,46.055,-99.916667,2020,
0ND7,SAVILLE PVT,HAZELTON,ND,46.465,-100.105,1961,
0ND8,CROWLEY RESORT,HEBRON,ND,47.13,-102.13167,1925,
0NE0,MERRIHEW,ASHBY,NE,41.85,-101.95,3815,
0NE1,RUNNER LANDING AREA,ASHBY,NE,42.406667,-101.93167,3760,
0NE2,MERRY,ASHBY,NE,41.866667,-101.91667,3791,
0NE3,SYRACUSE HOSPITAL,SYRACUSE,NE,40.666667,-96.186667,1120,
0NE4,FRANKLIN COUNTY MEMORIAL HOSPITA,FRANKLIN,NE,40.096667,-98.95,1950,
0NE5,NEWMAN,BIG SPRINGS,NE,41.016667,-102.01667,3528,
0NE6,FRAGER FIELD,FAIRFIELD,NE,40.433333,-98.07,1765,
0NJ2,BALLYMERE,MORRISTOWN,NJ,40.753333,-74.44,280,
0NJ3,MOUNT HOLLY,MOUNT HOLLY,NJ,39.966667,-74.8,45,
0NJ4,WEICHERT HEADQUARTERS,MORRIS PLAINS,NJ,40.94,-74.461667,103,
0NJ5,FLA-NET,NETCONG,NJ,40.886667,-74.705,1040,
0NJ6,DIX FIELD,LINWOOD,NJ,39.316667,-74.633333,8,
0NJ7,ESSEX GENERATING STATION,NEWARK,NJ,40.74,-74.121667,8,
0NJ8,PORT NEWARK HELISTOP,NEWARK,NJ,40.701667,-74.15,10,
0NJ9,JERSEY TPKE NEW BRUNSWICK HELIST,NEW BRUNSWICK,NJ,40.476667,-74.408333,70,
0NK0,BERDICK FIELD,CATTARAUGUS,NY,42.333333,-78.791667,1690,
0NK1,SPRING BROOK,CENTRAL SQUARE,NY,43.361667,-76.22,450,
0NK2,WESTWIND FARM,CHARLTON,NY,42.983333,-74.016667,800,
0NK3,SEVEN GULLIES,GROVELAND,NY,42.696667,-77.791667,600,
0NK4,MEDICAL CENTER,HEMPSTEAD,NY,40.726667,-73.553333,80,
0NK5,MID-HUDSON HELICOPTER SERVICE,HOPEWELL JUNCTION,NY,41.606667,-73.828333,270,
0NK6,LAPEER FLYER,MARATHON,NY,42.438333,-76.088333,1280,
0NK7,NEW PALTZ NR 1,NEW PALTZ,NY,41.74,-74.07,410,
0NK8,WILL-GROW FARMS,PENN YAN,NY,42.75,-77.023333,850,
0NK9,LAKEVIEW,CHITTENANGO,NY,43.01,-75.826667,1050,
0NY0,BENNETTS,NORTH CREEK,NY,43.7,-73.983333,1040,
0NY1,RUSSELL FLD,NORTHUMBERLAND,NY,43.14,-73.653333,260,
0NY2,FLYING ACRES,NORTH WESTERN,NY,43.341667,-75.358333,840,
0NY3,KERMIZIAN,OHIO,NY,43.313333,-74.931667,1440,
0NY5,STATE POLICE TROOP D,ONEIDA,NY,43.095,-75.65,507,
0NY6,BLAKE FALLS,PARISHVILLE,NY,44.483333,-74.75,1400,
0NY7,MURPHYS LNDG STRIP,PERTH,NY,43.038333,-74.185,940,
0NY8,WENSKOSKI FIELD,PERTH,NY,42.996667,-74.245,800,
0NY9,KNOX BAY,PISECO LAKE,NY,43.428333,-74.515,1661,
0O0,SAN LUIS RESERVOIR,LOS BANOS,CA,37.058333,-121.12667,544,122.9
0O1,ATWATER MUNI,ATWATER,CA,37.335,-120.605,145,123
0O2,BAKER,BAKER,CA,35.285,-116.08333,922,122.9
0O3,CALAVERAS CO-MAURY RASMUSSEN FIE,SAN ANDREAS,CA,38.145,-120.64833,1319,122.8
0O4,CORNING MUNI,CORNING,CA,39.943333,-122.17167,292,123
0O5,UNIVERSITY,DAVIS,CA,38.531667,-121.78667,68,122.8
0O9,WARD FIELD,GASQUET,CA,41.845,-123.985,356,122.9
0OH0,HALBEISEN,BROOKVILLE,OH,39.778333,-84.416667,980,
0OH1,TERRELL,NEW VIENNA,OH,39.338333,-83.686667,1200,
0OH2,JENKINS FIELD,NORTH HAMPTON,OH,39.97,-83.911667,1080,
0OH3,HAMILTON COUNTY SHERIFF'S PATROL,FOREST PARK,OH,39.28,-84.565,865,
0OH4,ZURIK STOL,OLIVE GREEN,OH,40.346667,-82.778333,1155,
0OH5,HAGEMEYER,OREGONIA,OH,39.443333,-84.043333,936,
0OH6,FRY FIELD,SPRING VALLEY,OH,39.6,-84.02,770,
0OH7,APPLE,PIQUA,OH,40.153333,-84.173333,1000,
0OH8,FRY,PIQUA,OH,40.188333,-84.256667,900,
0OH9,PARKNAVY,PLAIN CITY,OH,40.071667,-83.23,943,
0OI0,FOLTZ,EAST CANTON,OH,40.736667,-81.246667,1012,
0OI1,AUTOLITE,FOSTORIA,OH,41.18,-83.415,759,
0OI2,UNGER FIELD,GREENFIELD,OH,39.36,-83.418333,940,
0OI3,RITTER'S,HILLARD,OH,40,-83.233333,930,
0OI4,SALT BOX,HIRAM,OH,41.323333,-81.163333,1250,
0OI6,VICTOR'S LANDING,KINGSVILLE,OH,41.838333,-80.643333,860,
0OI9,HIDDEN QUARRY,LUCASVILLE,OH,38.895,-83.113333,830,
0OK0,EDMOND,EDMOND,OK,35.683333,-97.433333,1169,
0OK1,MCKEY,ELMORE CITY,OK,34.656667,-97.401667,1056,
0OK2,PARKVIEW HOSPITAL,EL RENO,OK,35.53,-97.983333,1349,
0OK3,GROENDYKE RANCH /PVT/,GEARY,OK,35.62,-98.523333,1420,
0OK4,ROCK CREEK FARM,COAL GATE,OK,34.66,-96.253333,730,
0OK5,CHAPPELL,GUTHRIE,OK,35.888333,-97.4,1070,
0OK6,ELLIS/HARVEY,GUTHRIE,OK,35.801667,-97.386667,1220,
0OK7,HASKELL,HASKELL,OK,35.83,-95.666667,588,122.9
0OK8,CADE'S,COVINGTON,OK,36.293333,-97.593333,1140,
0OK9,CRYSTAL,JENNINGS,OK,36.213333,-96.636667,1016,
0OR0,PROVIDENCE HOSPITAL,MEDFORD,OR,42.338333,-122.86167,1350,
0OR1,WILEYCREEK,DAYVILLE,OR,44.501667,-119.37167,4130,
0OR2,HENDERSHOTS,MERLIN,OR,42.133333,-123.45167,1200,
0OR3,LONG RANCH,MERRILL,OR,42.018333,-121.70333,4090,
0OR4,ROUND BUTTE,METOLIUS,OR,44.616667,-121.26833,2125,
0OR5,EAST OREGON CATTLE CO,EAGLE POINT,OR,42.503333,-122.855,1345,
0OR6,ROME SERVICE AIRPORT,ROME,OR,42.833333,-117.62833,3387,
0OR7,MARR FIELD,MONMOUTH,OR,44.853333,-123.26333,275,
0OR8,SUTTON ON ROGUE,WHITE CITY,OR,42.485,-122.86667,1260,
0OR9,HANEL FIELD,MOUNT HOOD,OR,45.593333,-121.54833,1626,
0P0,VALLEY FORGE BICENTENNIAL,NORRISTOWN,PA,40.121667,-75.406667,260,123.05
0PA0,PHILADELPHIA,HILLTOWN,PA,40.328333,-75.241667,670,
0PA1,PHOENIX TECHNOLOGIES,NORRISTOWN,PA,40.118333,-75.401667,252,
0PA2,JEFFERSON HOSPITAL,PITTSBURGH,PA,40.318333,-79.933333,1170,
0PA3,ROBBINS FARM,TROY,PA,41.75,-76.76,1207,
0PA4,ECKO FIELD,HUMMELSTOWN,PA,40.238333,-76.725,380,
0PA6,HOSTETLER,HUNTINGDON,PA,40.631667,-77.85,760,
0PA7,LINVILL,MEDIA,PA,39.885,-75.415,180,
0PA8,MEYER,JAMISON,PA,40.251667,-75.095,335,
0PA9,JERSEY SHORE,JERSEY SHORE,PA,41.206667,-77.226667,547,122.9
0PN0,FLETCHER,SHEAKEYVILLE,PA,41.438333,-80.166667,1290,
0PN2,FLYING ACRES,SLIPPERY ROCK,PA,41.073333,-80.07,1247,
0PN5,NICHOLS,SPARTANSBURG,PA,41.78,-79.598333,1761,
0PN6,MEMMI,THREE SPRINGS,PA,40.168333,-77.993333,1138,
0PN8,SHRIVER,TITUSVILLE,PA,41.616667,-79.683333,1560,
0PN9,PAUL PERSONAL USE,TITUSVILLE,PA,41.72,-79.678333,1645,
0PS0,FREDERICK AIRPARK,TYLERSBURG,PA,41.371667,-79.341667,1560,
0PS1,MC CRORY STORES,YORK,PA,39.981667,-76.671667,420,
0PS2,EVANSVILLE,BLANDON,PA,40.475,-75.893333,322,
0PS3,CARSONVILLE,CARSONVILLE,PA,40.49,-76.766667,800,
0PS4,OLD ORCHARD,CURWENSVILLE,PA,41.008333,-78.561667,1980,
0PS5,USED PARTS,EAST BANGOR,PA,40.88,-75.193333,660,
0PS6,HERBST,EAST PROSPECT,PA,39.95,-76.553333,485,
0PS7,HARMAN,ELIZABETHVILLE,PA,40.521667,-76.845,720,
0PS8,BAYFRONT GARAGE,ERIE,PA,42.133333,-80.086667,1130,
0PS9,DELAWARE VALLEY MEDICAL CENTER,FAIRLESS HILLS,PA,40.183333,-74.868333,141,
0Q0,BEAR VALLEY,BEAR VALLEY,CA,38.458333,-120.04,7073,
0Q2,COMMODORE CENTER,SAUSALITO,CA,37.88,-122.51333,0,
0Q3,SONOMA VALLEY,SCHELLVILLE/SONOMA,CA,38.223333,-122.45,10,122.9
0Q4,SELMA,SELMA,CA,36.581667,-119.65833,305,122.8
0Q5,SHELTER COVE,SHELTER COVE,CA,40.028333,-124.07333,69,122.9
0Q6,SHINGLETOWN,SHINGLETOWN,CA,40.521667,-121.81833,3880,122.9
0Q8,BONANZA HILLS,SNELLING,CA,37.523333,-120.39833,295,
0Q9,SONOMA SKYPARK,SONOMA,CA,38.258333,-122.435,20,122.8
0R0,COLUMBIA-MARION COUNTY,COLUMBIA,MS,31.296667,-89.813333,265,122.8
0R1,ATMORE MUNI,ATMORE,AL,31.016667,-87.445,284,122.8
0R3,ABBEVILLE MUNICIPAL,ABBEVILLE,LA,29.975,-92.083333,15,122.8
0R4,CONCORDIA PARISH,VIDALIA,LA,31.566667,-91.5,54,122.8
0R5,DAVID G JOYCE,WINNFIELD,LA,31.963333,-92.66,146,122.7
0R6,HAMPTON MUNI,HAMPTON,AR,33.525,-92.458333,173,122.9
0R7,THE RED RIVER,COUSHATTA,LA,31.99,-93.306667,177,122.9
0R8,SUMMERELL,FERRIDAY,LA,31.681667,-91.498333,64,
0R9,HAMMOND MUNI,HAMMOND,LA,30.521667,-90.418333,44,123
0S0,LIND,LIND,WA,46.978333,-118.585,1491,122.9
0S1,MEADOW CREEK USFS,MEADOW CREEK,MT,47.845,-113.41,3984,122.9
0S2,OREGON CITY AIRPARK,OREGON CITY,OR,45.278333,-122.59667,395,122.8
0S3,SPENCER RANCH LANDING STRIP,KEUTERVILLE,ID,45.838333,-116.66,4284,
0S4,BARKER,MOUNT VERNON,WA,48.375,-122.33833,5,
0S5,NEZ PERCE MUNI,NEZ PERCE,ID,46.236667,-116.24333,3201,122.9
0S6,CLARK COUNTY,ORCHARDS,WA,45.69,-122.545,273,122.8
0S7,DOROTHY SCOTT,OROVILLE,WA,48.966667,-119.41,1063,122.9
0S8,PORT ORCHARD,PORT ORCHARD,WA,47.431667,-122.66833,370,
0S9,JEFFERSON COUNTY INTL,PORT TOWNSEND,WA,48.05,-122.80167,110,123
0SD0,LENLING,GLENCROSS,SD,45.425,-100.89167,2142,
0SD3,BLEDSOE RANCH,HOOVER,SD,45.27,-103.21667,2872,
0SD4,BLACK HILLS FLYWAY,HOT SPRINGS,SD,43.368333,-103.55167,3972,
0SD6,OASIS RANCH,PHILIP,SD,44.288333,-101.82667,2580,
0SD7,PORCH RANCH,WANBLEE,SD,43.525,-101.73333,2775,
0SD8,JUHNKE,VIVIAN,SD,43.783333,-100.29333,1900,
0T0,BRISCOES CATARINA RANCH,CATARINA,TX,28.25,-99.816667,650,
0T1,DIAMOND H RANCH,CATARINA,TX,28.4,-99.558333,511,
0T2,FAY RANCH,CEDAR LANE,TX,28.938333,-95.75,25,
0T3,CHICKAMAUGA RESERVOIR,CHATTANOOGA,TN,35.3,-85.083333,670,122.9
0T4,ROCKING W RANCH,CHAPPELL HILL,TX,30.221667,-96.221667,275,
0T5,LAKE BAY GALL,CLEVELAND,TX,30.441667,-95.186667,230,
0T6,AINSWORTH,CLEVELAND,TX,30.313333,-95.026667,129,
0T8,TEXAS WORLD SPEEDWAY HELISTOP NR,COLLEGE STATION,TX,30.54,-96.221667,270,
0T9,TEXAS WORLD SPEEDWAY HELISTOP NR,COLLEGE STATION,TX,30.54,-96.226667,270,
0TA0,SIERRA MEDICAL CENTER,EL PASO,TX,31.778333,-106.48,3838,
0TA1,BUDDY HARMEL,HALFWAY,TX,34.22,-101.98,3552,
0TA2,SMITH FARMS,HALFWAY,TX,34.216667,-101.925,3487,
0TA3,TATE RANCH,DRYDEN,TX,30.305,-102.13833,2650,
0TA4,ERCO FIELD,KAUFMAN,TX,32.498333,-96.27,395,
0TA5,METRO HELI-PAD,HOUSTON,TX,29.615,-95.355,57,
0TA6,ARCO INGLESIDE SHOREBASE,INGLESIDE,TX,27.848333,-97.223333,20,
0TA7,ALTA VISTA RANCH,MARFA,TX,30.148333,-103.89333,4702,
0TA8,WOMACK PLANTATION,PARIS,TX,33.848333,-95.406667,410,
0TA9,HOUSTON OIL & MINERALS PORT BOLI,PORT BOLIVAR,TX,29.391667,-94.763333,8,
0TN0,R & S BUZZARD,SPRING HILL,TN,35.7,-86.893333,800,
0TN1,TIMS FORD,TULLAHOMA,TN,35.221667,-86.22,785,
0TN2,VILLAGE,GREENBACK,TN,35.656667,-84.185,920,
0TN3,PARK WEST,KNOXVILLE,TN,35.918333,-84.1,1000,
0TN4,ST MARY'S MEDICAL CENTER,KNOXVILLE,TN,35.991667,-83.928333,790,
0TN5,MC DONALD,MURFREESBORO,TN,35.87,-86.5,600,
0TN6,RINER FARM,NORRIS,TN,36.183333,-84.098333,1125,
0TN8,ERLANGER MEDICAL CENTER,CHATTANOOGA,TN,35.05,-85.29,745,
0TN9,EAST TENNESSEE CHILDREN'S HOSPIT,KNOXVILLE,TN,35.956667,-83.938333,1003,
0TS0,FLOWER MOUND,FLOWER MOUND,TX,33.023333,-97.123333,625,
0TS1,DOOLEY,JUSTIN,TX,33.098333,-97.273333,650,
0TS2,ULTRALIGHT INTERNATIONAL,HASLET,TX,32.948333,-97.328333,820,
0TS3,HOUSTON,HOUSTON,TX,29.816667,-95.663333,100,
0TS4,ULLRICH,LEDBETTER,TX,30.091667,-96.795,410,
0TS5,HIDE-A-WAY LAKE,LINDALE,TX,32.48,-95.446667,565,
0TS6,HARRIS COUNTY COURTHOUSE,HOUSTON,TX,29.716667,-95.476667,105,
0TS8,FLYING 'K' RANCH,MERCEDES,TX,26.15,-97.883333,81,
0TS9,JIM ROACH FIELD,NIEDERWALD,TX,30.015,-97.736667,600,
0TX0,NASSAU BAY,GRANBURY,TX,32.42,-97.713333,714,
0TX1,PECAN PLANTATION,GRANBURY,TX,32.353333,-97.676667,710,
0TX2,HELIPORT-FACILITY 5A,GRAND PRAIRIE,TX,32.763333,-97.058333,546,
0TX3,PANOLA GENERAL HOSPITAL,CARTHAGE,TX,32.166667,-94.346667,296,
0TX4,AEROSPATIALE HELICOPTER CORP,GRAND PRAIRIE,TX,32.716667,-97.033333,550,
0TX5,SHILOH,FLOWER MOUND,TX,33.025,-97.12,620,
0TX6,ELM CREEK AIRPARK,SEGUIN,TX,29.505,-97.996667,550,
0TX7,LAZY K ACRES,GRAPEVINE,TX,32.95,-97.15,700,
0TX8,JACOBIA FIELD,GREENVILLE,TX,33.18,-96.043333,570,
0TX9,CARD AERODROME,GREENVILLE,TX,33.25,-96.116667,540,
0U0,LANDMARK USFS,LANDMARK,ID,44.641667,-115.53333,6662,122.9
0U1,WARM SPRINGS CREEK,LOWMAN,ID,44.141667,-115.315,4831,122.9
0U2,COPPER BASIN,MACKAY,ID,43.801667,-113.83167,7920,122.9
0U3,MAHONEY CREEK USFS,MAHONEY CREEK,ID,44.745,-114.92167,4618,122.9
0U4,MALTA,MALTA,ID,42.308333,-113.37,4564,122.9
0U5,INTERSTATE,MALTA,ID,42.278333,-113.305,4580,
0U6,SYMMS,MARSING,ID,43.57,-116.77667,2680,
0U7,HOLLOW TOP,MARTIN,ID,43.325,-113.58833,5359,122.9
0U8,MAY,MAY,ID,44.61,-113.89667,5324,122.9
0U9,LEE WILLIAMS MEMORIAL,MIDVALE,ID,44.461667,-116.75833,2617,122.9
0V2,HARRIET ALEXANDER FIELD,SALIDA,CO,38.538333,-106.04667,7489,122.8
0V3,PIONEER VILLAGE FIELD,MINDEN,NE,40.515,-98.946667,2159,122.7
0V4,BROOKNEAL/CAMPBELL COUNTY,BROOKNEAL,VA,37.141667,-79.016667,597,122.7
0V5,WHITMAN STRIP,MANASSAS,VA,38.605,-77.585,225,122.9
0V6,MISSION SIOUX,MISSION,SD,43.306667,-100.62833,2605,122.8
0V7,KAYENTA,KAYENTA,AZ,36.71,-110.23667,5710,122.9
0V9,SMH,SPRINGDALE,AR,36.181667,-94.136667,1352,
0VA0,MOSTLY HARMLESS,BUMPASS,VA,37.965,-77.776667,330,
0VA1,JOHNSON FOX FIELD,BEDFORD,VA,37.233333,-79.585,900,
0VA2,RIVERWOOD,IRON GATE,VA,37.796667,-79.766667,1020,
0VA3,HUNT,MANQUIN,VA,37.698333,-77.095,150,
0VA4,WORLEY FIELD,ROCKY MOUNT,VA,36.95,-79.88,1219,
0VA5,ROCKVILLE,RICHMOND,VA,37.695,-77.661667,280,
0VA6,MC GUIRE VA MEDICAL CENTER PAD,RICHMOND,VA,37.496667,-77.461667,178,
0VA7,FLATROCK AIR STRIP,RICHMOND,VA,37.523333,-77.82,425,
0VA9,HANDY STRIP,GLOUCESTER COURT HOUSE,VA,37.446667,-76.453333,8,
0W0,LAKE UNION CHRYSLER AIR,SEATTLE,WA,47.628333,-122.33167,14,122.9
0W3,HARFORD COUNTY,CHURCHVILLE,MD,39.566667,-76.201667,400,122.8
0W5,HEXTON FARMS,CECILTON,MD,39.375,-75.906667,65,
0W6,CASTLE MARINA,CHESTER,MD,38.985,-76.29,10,
0W7,SCHEELER FIELD,CHESTERTOWN,MD,39.233333,-76.068333,70,122.7
0W9,CONOWINGO,CONOWINGO,MD,39.693333,-76.173333,380,122.9
0WA0,LOWER GRANITE STATE,COLFAX,WA,46.673333,-117.44333,719,122.9
0WA1,DWIGHT FIELD,CHEHALIS,WA,46.616667,-122.82667,350,
0WA2,CURTIS,CURTIS,WA,46.59,-123.105,254,
0WA4,HANSEN,EAST WENATCHEE,WA,47.436667,-120.28,1250,
0WA5,ASPLUND FIELD,EATONVILLE,WA,46.891667,-122.38,750,
0WA6,STEVENS MEMORIAL HOSPITAL,EDMONDS,WA,47.803333,-122.335,370,
0WI0,ST LUKE'S MEDICAL CENTER,MILWAUKEE,WI,42.986667,-87.951667,713,
0WI1,MORT'S LANDING,COMSTOCK,WI,45.506667,-92.141667,1255,
0WI2,DOERING FARMS AIRFIELD,MONCHES,WI,43.201667,-88.333333,910,
0WI3,LAKELAND HOSPITAL,ELKHORN,WI,42.661667,-88.496667,1040,
0WI4,SNOW CREST RANCH,MONTELLO,WI,43.83,-89.353333,810,
0WI6,SIMANDL FIELD/PRIVATE,MUSKEGO,WI,42.873333,-88.158333,805,
0WI7,WILMER M ZIMMERMAN CIVIL AIR PAT,NEENAH,WI,44.133333,-88.5,760,
0WI8,OCONOMOWOC,OCONOMOWOC,WI,43.138333,-88.471667,885,
0WI9,MC MANUS HOONCH-NA-SHEE-KAW,OREGON,WI,42.931667,-89.338333,931,
0X0,CARLTON RANCH-SIDELL,ARCADIA,FL,27.208333,-82.128333,43,
0X1,FRIERSON GROVE,ARCADIA,FL,27.303333,-81.88,65,
0X2,MONTGOMERY RANCH,ARCADIA,FL,27.075,-81.586667,75,
0X6,WALKER MEMORIAL MEDICAL CENTER,AVON PARK,FL,27.633333,-81.518333,120,
0X8,JORDAN,BELLEVIEW,FL,29.026667,-81.988333,72,
0X9,DUDA AIRSTRIP,BELLE GLADE,FL,26.588333,-80.636667,14,
0XS2,JOHN FIELDS RANCH,SONORA,TX,30.555,-100.535,2342,
0XS5,SOUTHEASTERN HELICOPTERS,SOUTH PADRE ISLAND,TX,26.146667,-97.173333,5,
0XS6,LAKESIDE BEACH,SPICEWOOD,TX,30.501667,-98.146667,800,
0XS7,ANACACHO RANCH,SPOFFORD,TX,29.191667,-100.275,1067,
0XS8,DUNBAR RANCH,SPOFFORD,TX,29.076667,-100.375,958,
0XS9,GOODYEAR AIRSHIP OPERATIONS,SPRING,TX,30.053333,-95.435,117,
0Y3,STUTTGART MEMORIAL HOSPITAL,STUTTGART,AR,34.518333,-91.508333,210,
0Y4,LAMBERT FECHTER MUNI,HARTLEY,IA,43.161667,-95.466667,1452,122.9
0Y5,NASH FIELD INDIANOLA,INDIANOLA,IA,41.303333,-93.568333,991,122.9
0Y6,LAKE MILLS MUNI,LAKE MILLS,IA,43.416667,-93.508333,1260,122.9
0Y7,LAMONI MUNI,LAMONI,IA,40.633333,-93.901667,1131,122.9
0Y8,LAWTON,LAWTON,IA,42.483333,-96.2,1235,122.9
0Z0,DEERING /NEW/,DEERING,AK,66.068333,-162.76667,15,122.9
0Z2,ROAD COMMISSION NR 1,DENALI,AK,63.108333,-147.53167,2525,122.9
0Z3,SHANNONS POND,DILLINGHAM,AK,59.058333,-158.57667,80,123.6
10AK,NUIQSUT,NUIQSUT,AK,70.21,-151.005,57,122.9
10C,GALT,GREENWOOD/WONDER LAKE,IL,42.403333,-88.375,875,122.8
10CA,WILLIAM E POOLE,APPLE VALLEY,CA,34.601667,-117.17333,3120,
10CO,SILKMAN FARMS INC,BURLINGTON,CO,39.455,-102.21333,4000,
10D,WINSTED MUNI,WINSTED,MN,44.95,-94.066667,1030,122.9
10F,ROSSER RANCH,GRAHAM,TX,33.015,-98.625,1112,122.9
10FD,ALTHA INTERNATIONAL,ALTHA,FL,30.588333,-85.07,140,
10FL,FISHERMEN'S HOSPITAL EMERGENCY H,MARATHON,FL,24.71,-81.095,5,
10G,HOLMES COUNTY,MILLERSBURG,OH,40.536667,-81.955,1218,123
10GA,BEAVERBROOK AERODROME,GRIFFIN,GA,33.325,-84.298333,910,
10H,MEEKER,WARSAW,IL,40.211667,-91.49,481,
10I,RIVERVIEW,DRESDEN,OH,40.136667,-81.993333,730,122.9
10II,JASPER COUNTY HOSPITAL,RENSSELAER,IN,40.935,-87.138333,660,
10IL,RIVERSIDE MEDICAL CENTER,KANKAKEE,IL,41.123333,-87.885,620,
10IS,SAVANNA CITY HOSPITAL,SAVANNA,IL,42.101667,-90.155,790,
10J,WHITE FARMS,CHIEFLAND,FL,29.513333,-82.875,46,
10K,SCOTIA,SCOTIA,NE,41.471667,-98.746667,1930,
10KS,UNIVERSITY OF KANSAS MEDICAL CEN,KANSAS CITY,KS,39.056667,-94.61,958,
10L,FOOTHILL PRESBYTERIAN HOSPITAL,GLENDORA,CA,34.133333,-117.87,730,
10LA,INDUSTRIAL HELICOPTERS INC.,SCOTT,LA,30.246667,-92.096667,35,
10MI,ST MARY'S HOSPITAL,SAGINAW,MI,43.426667,-83.938333,595,
10MO,ECKERTS AIRSTRIP,WILLIAMSBURG,MO,38.915,-91.705,839,
10N,KOBELT,WALLKILL,NY,41.628333,-74.133333,420,122.8
10ND,SMITH STRIP,HALLIDAY,ND,47.188333,-102.36167,2200,
10NE,ST JOSEPH HOSPITAL,OMAHA,NE,41.265,-95.955,1130,
10NJ,ST FRANCIS M C HELISTOP,TRENTON,NJ,40.218333,-74.738333,55,
10NY,BEAVER MEADOW,REMSEN,NY,43.368333,-75.16,1195,
10OH,ZOELLNER,HURON,OH,41.403333,-82.628333,617,
10OK,HICKORY HILLS,NORMAN,OK,35.166667,-97.216667,1175,
10OR,STEVENS MOUNTAIN,VERNONIA,OR,45.79,-123.23167,1000,
10PA,PIAC,ESSINGTON,PA,39.863333,-75.31,8,
10PN,ONE MERIDIAN PLAZA,PHILADELPHIA,PA,39.93,-75.243333,560,
10R,CURTIS RANCH FIELD,BRADY,TX,31.316667,-99.233333,1740,
10S,SKYDIVE OREGON,MOLALLA,OR,45.146667,-122.61833,360,
10T,GOTTWALD FIELD,HARWOOD,TX,29.666667,-97.5,440,
10TA,BEAR CREEK,HOUSTON,TX,29.791667,-95.635,100,
10TS,SAINT'S STRIP,MARION,TX,29.551667,-98.103333,980,
10TX,INGLESIDE OFFSHORE SERVICES,INGLESIDE,TX,27.845,-97.223333,15,
10U,OWYHEE,OWYHEE,NV,41.953333,-116.18833,5374,122.9
10V,HUBBARD,GATEWAY,CO,38.683333,-108.98333,4670,
10VA,NASHS,APPOMATTOX,VA,37.386667,-78.813333,785,
10WA,MULLAN HILL,SPOKANE,WA,47.555,-117.41333,2310,
10WI,BUDS LANDING,POUND,WI,45.115,-88.19,850,
10X,HENDERSON FIELD,MINNEOLA,FL,28.633333,-81.708333,90,
10XS,ARCHER CITY MUNI,ARCHER CITY,TX,33.581667,-98.618333,1065,122.9
10Y,LAKE BRONSON,LAKE BRONSON,MN,48.736667,-96.655,960,
11A,CLAYTON MUNI,CLAYTON,AL,31.883333,-85.485,435,122.9
11AK,DELTA AIRMOTIVE,DELTA JUNCTION,AK,64,-145.50167,1190,122.8
11B,WEBBER JONES,BROWNVILLE,ME,45.336667,-69.051667,400,122.9
11C,ROCKY PINE,LAKE,MI,43.808333,-85.025,1085,
11CA,TURNER FIELD,FOWLER,CA,36.673333,-119.72167,300,
11CO,CHANNEL 7,DENVER,CO,39.725,-104.98333,5300,
11D,CLARION COUNTY,CLARION,PA,41.225,-79.441667,1458,122.8
11F,FLYING M RANCH,GRANDVIEW,TX,32.3,-97.205,700,
11FD,NORTH OKALOOSA MEDICAL CENTER,CRESTVIEW,FL,30.735,-86.563333,230,
11FL,WILLIAMS FIELD,MIDDLEBURG,FL,30.043333,-81.881667,50,
11G,JOHNSON FIELD,SMITH CREEK,MI,42.921667,-82.585,630,
11GA,DE KALB GENERAL HOSPITAL,DECATUR,GA,33.791667,-84.281667,1008,
11I,CRAFT,FREDERICKTOWN,OH,40.501667,-82.558333,1096,
11II,ATTERBURY AIRFIELD,NINEVEH,IN,39.341667,-86.03,710,126.2
11IL,ST MARY'S HOSPITAL,KANKAKEE,IL,41.121667,-87.871667,610,
11IS,MARRIOTT,SCHAUMBURG,IL,42.033333,-88.033333,720,
11K,STROMSBURG MUNI,STROMSBURG,NE,41.13,-97.578333,1675,122.9
11KS,SHELLER'S,TONGANOXIE,KS,39.116667,-95.148333,1090,
11L,CAMINO AIRSTRIP,GOFFS,CA,34.835,-114.95667,2079,
11LL,THACKER,CHENOA,IL,40.723333,-88.763333,720,
11M,FULTON-ITAWAMBA COUNTY,FULTON,MS,34.351667,-88.376667,450,122.9
11MI,WAGNER'S LANDING,CLARKSTON,MI,42.738333,-83.436667,970,
11MN,SIXBERRY'S LANDING,CHISHOLM,MN,47.678333,-93.048333,1372,
11MO,REDGATE RANCH,WILLIAMSBURG,MO,38.901667,-91.635,820,
11N,CANDLELIGHT FARMS,NEW MILFORD,CT,41.566667,-73.466667,675,122.9
11ND,EVINGER STRIP,HALLIDAY,ND,47.425,-102.38333,2190,
11NE,KAAN,HARRISON,NE,42.441667,-103.91667,4650,
11NJ,SOUTHDOWN,PLUCKEMIN,NJ,40.64,-74.665,128,
11NY,SAIKKONEN,SPENCER,NY,42.208333,-76.45,969,
11OH,IBERIA LANDING STRIP,IBERIA,OH,40.663333,-82.855,1080,
11OK,BEEFOR RANCH,PURCELL,OK,35.071667,-97.383333,1150,
11OR,HOLIDAY SKY RANCH,SUTHERLIN,OR,43.393333,-123.285,510,
11PA,SHERRIE JOHN MANOR,MECHANICSBURG,PA,40.263333,-77.045,400,
11Q,DU BOIS RANCH,KERMAN,CA,36.703333,-120.135,195,
11R,BRENHAM MUNI,BRENHAM,TX,30.218333,-96.373333,310,122.7
11S,SEKIU,SEKIU,WA,48.266667,-124.30667,350,122.9
11T,CORPORA,HEARNE,TX,30.816667,-96.601667,270,
11TA,CONOCO,HOUSTON,TX,29.79,-95.611667,91,
11TS,PT ENTERPRISE D&W RANCH,MEXIA,TX,31.658333,-96.411667,526,
11TX,BUTLER,SHERMAN,TX,33.666667,-96.69,840,
11U,PIOCHE,PIOCHE,NV,38.003333,-114.51167,5840,122.9
11V,EASTON/VALLEY VIEW/,GREELEY,CO,40.33,-104.60833,4820,122.9
11VA,CHESAPEAKE GENERAL HOSPITAL,CHESAPEAKE,VA,36.741667,-76.243333,21,
11WA,HOMEPORT,SPOKANE,WA,47.523333,-117.47,2320,
11WI,VICTORY MEMORIAL HOSPITAL,STANLEY,WI,44.963333,-90.933333,1140,
11XS,BULVERDE AIRPARK,BULVERDE,TX,29.738333,-98.451667,1087,
11Z,LIGNITE,LIGNITE,AK,63.91,-149.02333,1171,122.9
12C,ROCHELLE MUNI AIRPORT-KORITZ FIE,ROCHELLE,IL,41.893333,-89.078333,781,122.8
12CA,FABER VINEYARDS,LODI,CA,38.11,-121.16833,70,
12D,TOWER MUNI,TOWER,MN,47.816667,-92.298333,1369,122.9
12E,PHOENIX AREA,PHOENIX,AZ,33.443333,-112.14833,1050,
12FD,HUMANA HOSPITAL,KISSIMMEE,FL,28.298333,-81.411667,59,
12FL,ZELLWIN FARMS,ZELLWOOD,FL,28.726667,-81.635,69,
12G,SHELBY COMMUNITY,SHELBY,OH,40.873333,-82.696667,1122,122.8
12GA,GWINNETT COMMUNITY HOSPITAL,SNELLVILLE,GA,33.898333,-84.03,1141,
12I,BROOKVILLE RESERVOIR,BROOKVILLE,IN,39.51,-85,748,122.9
12II,PENTECOST,CENTERVILLE,IN,39.856667,-84.971667,1020,
12IL,HAWKER,KANKAKEE,IL,41.2,-88.016667,620,
12IS,MERCER COUNTY HOSPITAL,ALEDO,IL,41.206667,-90.76,729,
12J,BREWTON MUNI,BREWTON,AL,31.051667,-87.068333,96,123
12K,SUPERIOR MUNI,SUPERIOR,NE,40.046667,-98.061667,1691,123
12KS,MOUNT IDY,YATES CENTER,KS,37.778333,-95.766667,1000,
12L,CONNER,GOFFS,CA,35.096667,-115.22,4108,
12M,LEWIS,GLEN ALLAN,MS,33.013333,-91.038333,112,
12MI,JOHN'S,DAVISON,MI,43.051667,-83.491667,820,
12MN,EASTMAN,LAKE HUBERT,MN,46.48,-94.281667,1200,
12MO,FERGUSON FARMS,WINDSOR,MO,38.58,-93.595,990,
12N,AEROFLEX-ANDOVER,ANDOVER,NJ,41.008333,-74.738333,583,122.8
12NE,REISIG BROTHERS,SCOTTSBLUFF,NE,41.906667,-103.7,3985,
12NJ,PENSKE 2,LODI,NJ,40.883333,-74.068333,62,
12OH,UNIV HOSPITAL/GARAGE,CINCINNATI,OH,39.136667,-84.501667,820,
12OR,SKINNER RANCH,JORDAN VALLEY,OR,42.951667,-117.28167,4273,
12PA,EMERY FIELD,POTTSTOWN,PA,40.19,-75.615,315,
12PN,WCAU,PHILADELPHIA,PA,40.006667,-75.215,230,
12Q,MEE MEMORIAL HOSPITAL,KING CITY,CA,36.208333,-121.13167,320,
12R,MIKESKA FIELD,BROOKSHIRE,TX,29.873333,-96.005,161,122.9
12S,MONUMENT STATE,MONUMENT,OR,44.831667,-119.43,2323,122.9
12TA,CHANNEL TWO,HOUSTON,TX,29.69,-95.528333,72,
12TS,BLO,MINERAL WELLS,TX,32.908333,-97.976667,1050,
12TX,BUNTONS FIELD,WICHITA FALLS,TX,34.058333,-98.403333,1040,
12V,ONA AIRPARK,MILTON,WV,38.44,-82.201667,580,122.8
12W,NATIONAL ESTATES INC,DUNN,NC,35.27,-78.573333,201,
12WA,FOWLERS NW 40,SPOKANE,WA,47.52,-117.46333,2313,
12Y,LE SUEUR MUNI,LE SUEUR,MN,44.436667,-93.913333,868,122.9
13AK,SATTERBURGS,HOUSTON,AK,61.65,-149.885,350,
13C,LAKEVIEW AIRPORT-GRIFFITH FIELD,LAKEVIEW,MI,43.451667,-85.266667,971,122.8
13CA,SECURITY PACIFIC PLAZA,LOS ANGELES,CA,34.053333,-118.25333,1050,
13CO,LEYNER'S HAYFIELD,LAFAYETTE,CO,40.046667,-105.11167,5050,
13E,KTSP,PHOENIX,AZ,33.448333,-112.08167,1120,
13F,FLYERS FIELD,GREENVILLE,TX,33.19,-96.188333,640,
13FD,YELVINGTON,ORLANDO,FL,28.518333,-81.383333,110,
13FL,GATOR LAKE,ZEPHYRHILLS,FL,28.276667,-82.32,110,
13GA,OAK RIDGE PLANTATION,SYLVESTER,GA,31.366667,-83.755,350,
13I,MONTONEY'S,GROVE CITY,OH,39.911667,-83.09,845,122.9
13II,ST JOSEPH MEDICAL CENTER,FORT WAYNE,IN,41.078333,-85.15,845,
13IL,SHISSLER SEED CO INC,KEITHSBURG,IL,41.041667,-90.895,570,
13IS,UNIVERSITY OF ILLINOIS,CHAMPAIGN,IL,40.093333,-88.241667,750,
13K,EUREKA MUNI,EUREKA,KS,37.851667,-96.291667,1206,122.8
13KS,DANIEL'S LANDING,ANDOVER,KS,37.698333,-97.11,1325,
13L,ELWOOD ONSHORE FACILITY,GOLETA,CA,34.43,-119.91167,15,
13LA,EVERGREEN,CAMERON,LA,29.783333,-93.208333,10,
13LL,LAGRANGE,ESSEX,IL,41.17,-88.191667,580,
13M,MARLBORO,UPPER MARLBORO,MD,38.803333,-76.736667,11,122.9
13MI,LEE MEMORIAL HOSPITAL,DOWAGIAC,MI,41.983333,-86.116667,748,
13MO,DOMEYER,LENOX,MO,37.676667,-91.706667,1260,
13N,TRINCA,ANDOVER,NJ,40.966667,-74.78,600,122.8
13ND,RYGG,PORTLAND,ND,47.486667,-97.623333,1115,
13NJ,WYETH-AYERST RESEARCH,PRINCETON,NJ,40.365,-74.583333,117,
13NY,HEALTH SCIENCES CNTR UNV HOSP,STONY BROOK,NY,40.908333,-73.116667,190,
13OH,ROSE FIELD,JEWELL,OH,41.33,-84.298333,728,
13OI,UNION HOSPITAL,DOVER,OH,40.515,-81.455,926,
13OK,MC ALESTER REGIONAL HOSPITAL,MC ALESTER,OK,34.936667,-95.748333,705,
13OR,AUBREY MOUNTAIN AIRSTRIP,OAKRIDGE,OR,43.74,-122.42667,1680,
13PA,READING HOSPITAL,WEST READING,PA,40.33,-75.95,292,
13PN,RICHLAND ACRES,QUAKERTOWN,PA,40.455,-75.305,550,
13Q,SUNRISE DUSTERS,KNIGHTS LANDING,CA,38.816667,-121.70167,25,
13R,VARISCO,BRYAN,TX,30.656667,-96.538333,240,
13S,LAKE LOUISE,LAKE LOUISE,AK,62.283333,-146.51833,2362,122.9
13T,BARRONENA RANCH,HEBBRONVILLE,TX,27.491667,-98.67,600,
13TA,KBMT-TV,BEAUMONT,TX,30.073333,-94.133333,32,
13TS,VAN ES RANCH,OILTON,TX,27.455,-98.926667,830,
13TX,ALLISON RANCH,SONORA,TX,30.531667,-100.45167,2350,
13U,MOUNT WILSON GUEST RANCH,PIOCHE,NV,38.256667,-114.45833,6595,122.8
13VA,7TH DIV STATE POLICE HQTRS,FAIRFAX,VA,38.825,-77.283333,395,
13WA,CAMANO ISLAND AIRFIELD,STANWOOD,WA,48.256667,-122.43667,145,122.9
13WI,NOWATZSKI FIELD,MARKESAN,WI,43.696667,-89,920,
13X,TANGERINE,ZELLWOOD,FL,28.76,-81.606667,125,
13Y,LITTLEFORK MUNI/HANOVER,LITTLE FORK,MN,48.416667,-93.586667,1145,122.9
13Z,LORING,LORING,AK,55.601667,-131.63667,0,122.9
14A,LAKE NORMAN AIRPARK,MOORESVILLE,NC,35.615,-80.9,838,122.8
14AK,FOUR CORNERS,PALMER,AK,61.5,-149.16833,300,
14CA,HOAG MEMORIAL HOSPITAL,NEWPORT BEACH,CA,33.625,-117.93,94,
14CO,GOOD PASTURE,BEULAH,CO,38.096667,-104.91,6000,
14F,HAMLIN MUNI,HAMLIN,TX,32.85,-100.13833,1753,122.9
14FL,WELLS FLYING SERVICE,JAY,FL,30.865,-87.178333,240,
14G,FREMONT,FREMONT,OH,41.333333,-83.141667,662,122.8
14GA,LATHAM CREEK,GAINESVILLE,GA,34.336667,-83.943333,1120,
14H,H MEEKER,WARSAW,IL,40.255,-91.44,485,
14I,BLOOM,JAMESTOWN,OH,39.633333,-83.75,1050,122.9
14II,ROTO-WHIRL/HOOSIER DOME,INDIANAPOLIS,IN,39.763333,-86.166667,710,
14IL,KEWANEE HOSPITAL,KEWANEE,IL,41.235,-89.931667,838,
14IS,MARSHALL BROWNING HOSPITAL,DU QUOIN,IL,38.025,-89.236667,454,
14J,CARL FOLSOM,ELBA,AL,31.41,-86.088333,262,122.9
14L,DEVONSHIRE AREA,LOS ANGELES,CA,34.256667,-118.53167,1012,
14LA,KILLARNY FARM,ST FRANCISVILLE,LA,30.841667,-91.508333,53,
14LL,ROSENOW,FULTON,IL,41.925,-90.091667,591,
14M,HOLLANDALE MUNI,HOLLANDALE,MS,33.183333,-90.83,114,122.7
14MI,EAST-WEST PARIS,DUTTON,MI,42.851667,-85.566667,750,
14MN,LAKE MARION,LAKEVILLE,MN,44.665,-93.276667,978,
14MO,STEVINSON FARM,BLUE SPRINGS,MO,39.05,-94.316667,900,
14N,BELTZVILLE,LEHIGHTON,PA,40.845,-75.635,899,122.9
14ND,HAGEN PRIVATE,REEDER,ND,46.208333,-102.90833,2810,
14NJ,WUERKERS NEW ACRES FARM,RIO GRANDE,NJ,39.008333,-74.888333,22,
14NY,KOHN,STRAITS CORNERS,NY,42.138333,-76.385,1140,
14OH,HEILMAN,KENTON,OH,40.668333,-83.443333,930,
14OI,PLEASANT HOME GLIDING CLUB,PLEASANT HOME,OH,40.92,-82.113333,1050,
14OK,REHERMAN,KINGFISHER,OK,35.805,-97.933333,1105,
14OR,KASER,SCOTTS MILLS,OR,45.056667,-122.68,390,
14PA,DIMASCIO FIELD,POTTSTOWN,PA,40.291667,-75.658333,350,
14Q,BOB'S FLYING SERVICE INC,KNIGHTS LANDING,CA,38.833333,-121.71833,40,
14R,CALDWELL MUNI,CALDWELL,TX,30.515,-96.703333,390,122.9
14S,WESTPORT,WESTPORT,WA,46.896667,-124.1,6,122.9
14T,SMITH I-RANCH,HEXT,TX,30.916667,-99.483333,1793,
14TS,O S WYATT,REALITOS,TX,27.421667,-98.605,532,
14TX,KEYES RANCH,DRIPPING SPRINGS,TX,30.29,-98.173333,1150,
14VA,KRENS FARM,HILLSBORO,VA,39.228333,-77.746667,790,
14W,MEADSTOWN AIRSTRIP,ELIZABETH CITY,NC,36.2,-76.235,7,
14WA,LIVINGSTON BAY,STANWOOD,WA,48.236667,-122.45167,10,
14WI,FLYING O,NEW AUBURN,WI,45.18,-91.518333,1000,
14XS,ISBELL RANCH,DAVILLA,TX,30.808333,-97.273333,430,
14Y,TODD FIELD,LONG PRAIRIE,MN,45.898333,-94.873333,1333,122.9
15A,MARK REYNOLDS/NORTH MOBILE COUNT,CREOLA,AL,30.913333,-87.98,60,122.8
15CA,STANFORD UNIVERSITY HOSPITAL CEN,PALO ALTO,CA,37.435,-122.175,84,
15E,JOHN C LINCOLN HOSPITAL,PHOENIX,AZ,33.566667,-112.06833,1255,
15F,HASKELL MUNI,HASKELL,TX,33.191667,-99.718333,1624,122.9
15FD,ORANGE HILL,WAUSAU,FL,30.658333,-85.53,260,
15FL,CANNON CREEK,LAKE CITY,FL,30.15,-82.665,125,
15G,WELTZIEN SKYPARK,WADSWORTH,OH,41.028333,-81.798333,1210,123
15GA,DARLA'S,KITE,GA,32.68,-82.478333,328,
15H,WILLIAMSON,WESTERVELT,IL,39.46,-88.868333,630,
15II,WEBER FIELD,KNIGHTSTOWN,IN,39.793333,-85.578333,974,
15IL,GITTLESON FARMS,FRANKLIN GROVE,IL,41.796667,-89.273333,836,
15IS,FURTNEY,FISHER,IL,40.291667,-88.36,730,
15J,COOK COUNTY,ADEL,GA,31.14,-83.453333,235,122.8
15KS,SICKLER AIRSTRIP,EMPORIA,KS,38.43,-96.088333,1200,
15M,IUKA,IUKA,MS,34.771667,-88.166667,630,122.9
15MI,GRANT PAD,FRASER,MI,42.545,-82.931667,638,
15MO,QUEEN CITY MUNI,QUEEN CITY,MO,40.391667,-92.565,997,122.9
15N,JENKINS,WYOMING,DE,39.12,-75.583333,53,122.8
15NE,SINDT,UPLAND,NE,40.291667,-98.823333,1990,
15NJ,WERNER,BELFORD,NJ,40.425,-74.1,7,
15NY,PENINSULA HOSPITAL CENTER,FAR ROCKAWAY,NY,40.591667,-73.78,0,
15OH,TWIN CITY HOSPITAL,DENNISON,OH,40.401667,-81.336667,940,
15OI,FIRELANDS COMMUNITY HOSPITAL NR,SANDUSKY,OH,41.436667,-82.711667,599,
15OK,ENID STATE SCHOOL,ENID,OK,36.421667,-97.845,1236,
15OR,CAMP RILEA,WARRENTON,OR,46.116667,-123.93167,32,
15PA,CAVAGE PERSONAL USE,PROMPTON,PA,41.595,-75.355,1400,
15PN,METROPOLITAN EDISON,READING,PA,40.375,-75.938333,280,
15Q,JOHNSON RANCH,LE GRAND,CA,37.191667,-120.27667,240,
15R,KARDYS,CIBOLO,TX,29.576667,-98.246667,800,
15S,LESTER STATE,LESTER,WA,47.215,-121.46167,1693,122.9
15T,ARCO HIGH ISLAND,HIGH ISLAND,TX,29.62,-94.206667,5,
15TA,J R RANCH,BRIGGS,TX,30.255,-99.946667,1125,
15TS,OWENS COUNTRY SAUSAGE,RICHARDSON,TX,32.986667,-96.696667,629,
15TX,ED SHADLE PRIVATE,STEPHENVILLE,TX,32.305,-98.325,1550,
15VA,FOX ACRES,WARRENTON,VA,38.721667,-77.9,450,
15WA,SUNSET,STANWOOD,WA,48.271667,-122.35667,125,
15WI,PETERSON FIELD,OREGON,WI,42.926667,-89.418333,978,
15X,WING SOUTH AIRPARK,NAPLES,FL,26.116667,-81.703333,9,
15Y,SELLMAN FLD,MABEL,MN,43.528333,-91.833333,1353,
15Z,MC CARTHY NR 2,MC CARTHY,AK,61.436667,-142.90333,1531,122.9
16A,NUNAPITCHUK,NUNAPITCHUK,AK,60.905,-162.43833,12,122.9
16CA,POLICE PISTOL RANGE,SAN FRANCISCO,CA,37.72,-122.49833,24,
16CO,RAWHIDE STRIP,BUCKEYE,CO,40.908333,-105.08333,5860,
16D,PERHAM MUNI,PERHAM,MN,46.603333,-95.605,1371,122.9
16E,GOOD SAMARITAN HOSPITAL,PHOENIX,AZ,33.465,-112.06,1139,
16F,HOLLY LAKE RANCH,HAWKINS,TX,32.698333,-95.208333,409,
16FD,SKINNERS WHOLESALE NURSERY,CRESCENT CITY,FL,29.405,-81.496667,20,
16FL,J-22 RANCH,MILTON,FL,30.725,-87.201667,200,
16G,SENECA COUNTY,TIFFIN,OH,41.093333,-83.213333,787,123
16GA,GALLERIA,MARIETTA,GA,33.885,-84.463333,998,
16H,ISLEY,WHEELER,IL,39.088333,-88.288333,595,
16I,CREAMER AIR PARK,JEFFERSONVILLE,OH,39.613333,-83.558333,1040,
16II,HARRINGTON FIELD,SAN PIERRE,IN,41.183333,-86.933333,710,
16IL,HAROLD BUNGER,KIRKLAND,IL,42.066667,-88.833333,830,
16IS,KELLUMS,GOREVILLE,IL,37.578333,-89.01,720,
16J,DAWSON MUNI,DAWSON,GA,31.746667,-84.425,321,122.8
16KS,SENG,GARDEN CITY,KS,37.941667,-100.77833,2850,
16L,PALISADES RANCH,HELENDALE,CA,34.711667,-117.35167,2510,
16M,PAYNE,PELAHATCHIE,MS,32.3,-89.858333,359,
16MI,BARNSTORMERS 5,GAINES,MI,42.888333,-83.866667,820,
16MN,VALLEY NEWS CO - LAKE WASHINGTON,MADISON LAKE,MN,44.24,-93.86,1000,
16MO,FINDLEY FIELD,BEAUFORT,MO,38.405,-91.156667,755,
16N,TISHOMINGO HEALTH SERVICES INC,IUKA,MS,34.811667,-88.203333,600,
16ND,HARSTAD STRIP,STANLEY,ND,48.256667,-102.36833,2250,
16NE,KORVER,PANAMA,NE,40.56,-96.491667,1390,
16NJ,HUMMEL,ISLAND HEIGHTS,NJ,39.936667,-74.135,0,
16OI,SUDMAN FIELD,ST MARYS,OH,40.578333,-84.345,860,
16OK,LOWER FORTY,HARRAH,OK,35.466667,-97.2,1160,
16OR,PAPE' BROS INC.,COBURG,OR,44.148333,-123.06,388,
16PA,SKY HILL,BIGLERVILLE,PA,39.931667,-77.22,620,
16PN,OAKDALE AHP,OAKDALE,PA,40.388333,-80.158333,0,
16R,ROBERTSON RANCH,COMSTOCK,TX,29.693333,-101.16167,1663,
16S,MYRTLE CREEK MUNICIPAL,MYRTLE CREEK,OR,42.998333,-123.31,619,122.9
16TS,PINERIDGE,TYLER,TX,32.223333,-95.318333,420,
16TX,RATLIFF,STEPHENVILLE,TX,32.263333,-98.106667,1300,
16U,FORT RUBY RANCH AIRSTRIP,RUBY VALLEY,NV,40.058333,-115.50667,6006,122.9
16VA,SMITH,WINCHESTER,VA,39.15,-78.216667,800,
16WA,LITTLE GOOSE LOCK AND DAM,STARBUCK,WA,46.583333,-118.00167,681,122.9
16WI,LAC VIEUX DESERT,PHELPS,WI,46.121667,-89.121667,1690,
16XS,PROPWASH,JUSTIN,TX,33.08,-97.356667,790,
16Z,MC GRATH,MC GRATH,AK,62.958333,-155.59333,325,123.6
17CA,BROOKSIDE HOSPITAL,SAN PABLO,CA,37.953333,-122.33667,85,
17FD,SHERIFFS HELISTOP,BARTOW,FL,27.9,-81.845,120,
17FL,GREY STONE,OCALA,FL,29.28,-82.125,100,
17G,PORT BUCYRUS-CRAWFORD COUNTY,BUCYRUS,OH,40.781667,-82.975,1008,122.8
17GA,HIDDEN LAKE FARMS,MARIETTA,GA,34.016667,-84.435,1070,
17I,BOHANNAN,KILBOURNE,OH,40.345,-82.936667,960,
17II,DREESSEN FIELD,WALKERTON,IN,41.45,-86.51,706,
17IL,HAHN,LADD,IL,41.411667,-89.205,675,
17IS,WINTERTON,LEE,IL,41.756667,-88.946667,950,
17J,DONALSONVILLE MUNI,DONALSONVILLE,GA,31.006667,-84.878333,147,122.8
17K,BOISE CITY,BOISE CITY,OK,36.775,-102.51,4178,122.9
17KS,TEVIS,MELVERN,KS,38.503333,-95.676667,1000,
17L,ERNST FIELD,HEMET,CA,33.596667,-116.88333,2860,
17LA,SHELL VENICE TERMINAL,VENICE,LA,29.27,-89.355,5,
17LL,OINK ACRES,MAHOMET,IL,40.16,-88.41,725,
17M,MAGEE MUNI,MAGEE,MS,31.861667,-89.803333,555,122.8
17MI,WHITE OAKS,IMLAY CITY,MI,43.091667,-83.018333,810,
17MN,KIVI/MOKKI,MC GREGOR,MN,46.716667,-93.21,1224,
17MO,RGL FIELD,MONTGOMERY CITY,MO,38.985,-91.535,825,
17N,CROSS KEYS,CROSS KEYS,NJ,39.705,-75.033333,162,122.8
17NE,JEFFERSON COUNTY MEMORIAL HOSPIT,FAIRBURY,NE,40.156667,-97.176667,1460,
17NJ,NEW JERSEY STEEL HELISTOP,SAYREVILLE,NJ,40.486667,-74.321667,32,
17OH,KOSIK PRIVATE,KIPTON,OH,41.243333,-82.27,855,
17OI,KLEPTZ,UNION,OH,39.916667,-84.336667,980,
17OK,J-B AIRSTRIP,KREMLIN,OK,36.525,-97.758333,1142,
17PA,KELLY,QUAKERTOWN,PA,40.441667,-75.325,526,
17PN,TOBYHANNA ARMY DEPOT,TOBYHANNA,PA,41.17,-75.343333,1990,
17Q,CORTOPASSI,LINDEN,CA,38.013333,-121.12667,80,
17S,CHEHALEM AIRPARK,NEWBERG,OR,45.323333,-123.055,190,
17TA,HELI-DYNE SYSTEMS INC,HURST,TX,32.801667,-97.18,500,
17TS,SHERATON CENTRE PARK HOTEL,ARLINGTON,TX,32.758333,-97.08,510,
17TX,MIZE RANCH,STEPHENVILLE,TX,32.448333,-98.255,1100,
17V,HAXTUN MUNI,HAXTUN,CO,40.625,-102.60333,4035,122.9
17VA,F.B. FOWLER,GRUNDY,VA,37.281667,-82.101667,1150,
17WA,ROESLER TIMBER COMPANY,STARTUP,WA,47.868333,-121.75333,141,
17WI,HA-RAIL,LAKE MILLS,WI,43.036667,-88.893333,885,
17XS,LAJITAS,LAJITAS,TX,29.265,-103.765,2364,
17Y,ISEDOR IVERSON,MC GREGOR,MN,46.62,-93.308333,1227,122.9
17Z,MANOKOTAK,MANOKOTAK,AK,58.988333,-159.05,107,122.9
18A,FRANKLIN COUNTY,CANON,GA,34.34,-83.133333,860,122.9
18AZ,SKY RANCH-CAREFREE,CAREFREE,AZ,33.81,-111.89,2568,
18CA,TWIN CITIES COMMUNITY HOSPITAL,TEMPLETON,CA,35.555,-120.72,851,
18CO,DEAD STICK RANCH,KIOWA,CO,39.34,-104.52,6660,
18FD,SKY RANCH,BAKER,FL,30.853333,-86.666667,250,
18FL,BAHIA BEACH,RUSKIN,FL,27.73,-82.475,6,
18GA,SLEEPY HOLLOW,SOCIAL CIRCLE,GA,33.693333,-83.658333,750,
18I,MC CREARY COUNTY,PINE KNOT,KY,36.696667,-84.391667,1370,122.9
18II,MC GILL,CICERO,IN,40.12,-86.068333,855,
18IL,LA GRANGE MEML HOSPITAL,LA GRANGE,IL,41.796667,-87.886667,675,
18IS,ALLSTATE COMMERCIAL PLAZA,SOUTH BARRINGTON,IL,42.07,-88.175,858,
18K,FOWLER,FOWLER,KS,37.385,-100.18667,2483,122.9
18KS,CHEROKEE STRIP,UDALL,KS,37.371667,-97.106667,1270,
18LA,CAMP BEAUREGARD ARMY NATIONAL GU,PINEVILLE,LA,31.383333,-92.4,125,
18M,LINWOOD,LINWOOD,MS,32.79,-90.138333,285,
18MI,VACOTTAGE,GLADWIN,MI,42.958333,-84.64,840,
18MN,HINES FARM,MOTLEY,MN,46.236667,-94.593333,1283,
18MO,GIMLIN,OZARK,MO,36.963333,-93.17,1380,
18ND,KRAFT AIRSTRIP,STEELE,ND,46.861667,-99.926667,1870,
18NE,DOC'S,GENEVA,NE,40.513333,-97.61,1640,
18NJ,MANALAPAN TOWNSHIP-VILLAGE GREEN,FREEHOLD,NJ,40.28,-74.33,100,
18NY,STRIP IN THE WOODS,WOODSTOCK,NY,42.016667,-74.048333,500,
18OH,JER-MAR AIRPARK,LAGRANGE,OH,41.256667,-82.143333,800,
18OI,BOGGY BOTTOMS,VICKERY,OH,41.423333,-82.983333,575,
18OK,COMANCHE COUNTY MEML HOSPITAL,LAWTON,OK,34.61,-98.433333,1142,
18PN,SPUD VIEW,UPPER STRASBURG,PA,40.065,-77.693333,733,
18R,CORPUS CHRISTI,CORPUS CHRISTI,TX,27.801667,-97.393333,6,122.9
18S,NORWAY,NORWAY,OR,43.103333,-124.16167,23,
18TA,WEST KERR RANCH,JUNCTION,TX,30.136667,-99.743333,2330,
18TS,BRACKENRIDGE HOSPITAL,AUSTIN,TX,30.273333,-97.735,519,
18TX,FLYING 'T' RANCH,CADDO MILLS,TX,32.95,-96.228333,545,
18U,GAJEWSKI FLD,ALEXANDER,ND,47.9,-103.65833,2100,
18V,PLATTE VALLEY AIRPARK,HUDSON,CO,40.1,-104.70167,4965,122.9
18VA,ENGLISH,HURT,VA,37.103333,-79.301667,550,
18W,BEARD,FAYETTEVILLE,NC,35.068333,-78.935,210,
18WI,LEACH FARMS,POY SIPPI,WI,44.088333,-88.925,750,
18XS,GARDNER FARM,MC ADOO,TX,33.8,-101.03333,3000,
18Y,MILACA MUNI,MILACA,MN,45.771667,-93.631667,1100,122.9
19A,JACKSON COUNTY,JEFFERSON,GA,34.173333,-83.56,951,122.8
19AK,ICY BAY,ICY BAY,AK,59.968333,-141.66167,50,122.5
19CA,HENRY MAYO NEWHALL MEMORIAL HOSP,VALENCIA,CA,34.398333,-118.55333,1200,
19CO,MEMORIAL HOSPITAL,COLORADO SPRINGS,CO,38.84,-104.79833,6095,
19D,MORA MUNI,MORA,MN,45.886667,-93.271667,1012,122.9
19FD,NICHOLAS ISLAND,JUPITER,FL,26.94,-80.086667,5,
19FL,WPTV,WEST PALM BEACH,FL,26.718333,-80.05,9,
19GA,WILLOW POND AVIATION INC,FAYETTEVILLE,GA,33.423333,-84.5,868,
19H,LAMBDINS FIELD,WOLF LAKE,IL,37.54,-89.486667,350,
19I,BROWNIES LEBANON,LEBANON,OH,39.398333,-84.205,879,122.8
19IL,KEUTZER,LA MOILLE,IL,41.513333,-89.23,798,
19IS,SKILLET FORK FARM,WAYNE CITY,IL,38.296667,-88.556667,430,
19K,VILLNAVE,BELTON,MO,38.766667,-94.588333,1125,
19KS,SCHULTZ FIELD,CHANUTE,KS,37.62,-95.458333,940,
19LA,REGION 1 HEADQUARTERS-STATE POLI,BATON ROUGE,LA,30.448333,-90.103333,70,
19LL,NEINER,MANTENO,IL,41.256667,-87.92,650,
19M,C. A. MOORE,LEXINGTON,MS,33.125,-90.025,340,122.9
19MI,MECOSTA COUNTY GENERAL HOSPITAL,BIG RAPIDS,MI,43.695,-85.473333,911,
19MN,LONG,MOUND,MN,44.921667,-93.685,930,
19MO,NORTH PATROL DIV STATION,KANSAS CITY,MO,39.245,-94.588333,955,
19N,CAMDEN COUNTY,BERLIN,NJ,39.778333,-74.948333,150,122.8
19ND,BRECKHEIMER,TOLNA,ND,47.733333,-98.488333,1458,
19NJ,AMERICAN CYANAMID HELISTOP,WEST WINDSOR,NJ,40.291667,-74.676667,101,
19OH,HARRIS CORN FIELD,LITCHFIELD,OH,41.173333,-82.06,915,
19OI,AIRC HELISTOP,WINTERSVILLE,OH,40.38,-80.705,1218,
19OK,GERHART,OKMULGEE,OK,35.728333,-95.976667,940,
19OR,GABEL,MAUPIN,OR,45.11,-121.22333,2000,
19S,AEROACRES,OREGON CITY,OR,45.316667,-122.605,420,
19TA,LAGRONE RANCH,MC CLENDON-CHISHOLM,TX,32.821667,-96.416667,567,
19TS,KVUE-TV,AUSTIN,TX,32.365,-97.736667,780,
19TX,WOODY MC CLELLAN RANCH,TEMPLE,TX,31.238333,-97.515,690,
19W,FAYETTEVILLE VAMC,FAYETTEVILLE,NC,35.09,-78.875,190,
19WA,KEY WAY,STEVENSON,WA,45.72,-121.88667,972,
19WI,ERICKSON FIELD,PRAIRIE FARM,WI,45.195,-92.056667,1180,
19X,GOLD COAST,NORTH MIAMI,FL,25.915,-80.156667,4,
19Y,PETERSON,MINNEAPOLIS,MN,45,-93.42,820,
1A0,DALLAS BAY SKY PARK,CHATTANOOGA,TN,35.188333,-85.178333,690,123
1A1,LAKE GUNTERSVILLE STATE LODGE,GUNTERSVILLE,AL,34.405,-86.213333,980,122.9
1A2,ARTHUR,ARTHUR,ND,47.111667,-97.206667,973,122.9
1A3,MARTIN CAMPBELL FIELD,COPPERHILL,TN,35.016667,-84.346667,1793,123
1A4,CAROLINA COW COUNTRY,CLINTON,SC,34.533333,-81.886667,625,
1A5,MACON COUNTY,FRANKLIN,NC,35.223333,-83.418333,2020,122.8
1A6,MIDDLESBORO-BELL COUNTY,MIDDLESBORO,KY,36.61,-83.736667,1154,122.8
1A7,JACKSON COUNTY,GAINESBORO,TN,36.396667,-85.641667,515,122.9
1A8,EMPIRE,EMPIRE,NV,40.578333,-119.35333,3990,122.9
1A9,AUTAUGA COUNTY,PRATTVILLE,AL,32.438333,-86.51,215,122.8
1AK0,CRAIG CG,CRAIG,AK,55.475,-133.14667,20,
1AK1,CREVICE CREEK,CREVICE CREEK,AK,67.373333,-152.01667,840,
1AK2,CROSSWIND LAKE,CROSSWIND LAKE,AK,62.401667,-146.01333,2125,
1AK4,ROTOR AIR,SOLDOTNA,AK,60.523333,-150.75167,200,
1AK7,HARDEE FIELD,EAGLE RIVER,AK,61.25,-149.31833,660,
1AK8,EMMA CREEK,EMMA CREEK,AK,67.316667,-150.18333,1110,122.9
1AK9,TUNDRA COPTER,FAIRBANKS,AK,64.815,-147.86167,434,
1AZ0,MOBILE,MOBILE,AZ,33.1,-112.26667,1261,
1AZ1,BOULAIS,TOLLESON,AZ,33.515,-112.25667,1060,
1AZ2,PARADISE AIR PARK,TOLLESON,AZ,33.411667,-112.18167,1015,
1AZ3,LA PALOMA,TUCSON,AZ,32.32,-110.91667,2720,
1AZ4,TANKERSLEY RESIDENCE,TUCSON,AZ,32.256667,-110.815,2150,
1AZ5,REDMAN RESIDENCE,TUCSON,AZ,32.268333,-110.70667,2860,
1AZ6,PULICE CONSTRUCTION,PHOENIX,AZ,33.573333,-112.10333,1235,
1AZ7,S R P TOLLESON CENTER,TOLLESON,AZ,33.45,-112.23,1140,
1AZ8,AIR RANCH,BULLHEAD CITY,AZ,35.295,-114.37333,3750,
1AZ9,BIOSPHERE 2 LANDING FIELD,ORACLE,AZ,32.585,-110.85167,3886,
1B0,DEXTER REGIONAL,DEXTER,ME,45.008333,-69.24,533,122.8
1B1,COLUMBIA COUNTY,HUDSON,NY,42.291667,-73.71,197,122.8
1B2,KATAMA AIRPARK,EDGARTOWN,MA,41.358333,-70.525,20,122.8
1B3,FAIR HAVEN MUNI,FAIR HAVEN,VT,43.615,-73.275,370,122.9
1B4,FORT FAIRFIELD MUNI,FORT FAIRFIELD,ME,46.763333,-67.85,471,122.9
1B5,FRANCONIA,FRANCONIA,NH,44.196667,-71.75,970,122.8
1B6,HOPEDALE INDUSTRIAL PARK,HOPEDALE,MA,42.106667,-71.51,269,122.8
1B9,MANSFIELD MUNI,MANSFIELD,MA,42,-71.196667,122,123
1C1,PAXTON,PAXTON,IL,40.448333,-88.128333,779,122.8
1C2,HOWELL-NEW LENOX,NEW LENOX,IL,41.48,-87.921667,753,123
1C5,CLOW INTL,PLAINFIELD,IL,41.696667,-88.13,670,122.9
1C6,RADIO RANCH,POLO,IL,41.978333,-89.56,840,122.8
1C7,PRAIRIE CITY,PRAIRIE CITY,IL,40.618333,-90.46,667,
1C8,COTTONWOOD,ROCKFORD,IL,42.291667,-89.136667,741,122.8
1C9,FRAZIER LAKE AIRPARK,HOLLISTER,CA,36.953333,-121.465,151,122.8
1CA0,R I SANTA SUSANA HELISTOP,SIMI VALLEY,CA,34.238333,-118.69667,1800,
1CA1,BELRIDGE STRIP,SOUTH BELRIDGE,CA,35.468333,-119.72167,575,
1CA2,SUNRISE ONE,RANCHO CORDOVA,CA,36.598333,-121.26,100,
1CA3,G S A LAGUNA NIGUEL G/L HELISTOP,SOUTH LAGUNA BEACH,CA,33.561667,-117.715,188,
1CA4,AHA-QUIN,BLYTHE,CA,33.87,-114.52667,300,
1CA5,CALIFORNIA TITLE BUILDING,SOUTH PASADENA,CA,34.123333,-118.15,808,
1CA6,ON THE ROCKS,ALPINE,CA,32.765,-116.72333,2650,
1CA7,L. A. TIMES COSTA MESA,COSTA MESA,CA,33.693333,-117.91667,35,
1CA8,R I SCIENCE CENTER HELISTOP,THOUSAND OAKS,CA,34.196667,-118.90833,775,
1CA9,LOS ANGELES COUNTY FIRE DEPARTME,THOUSAND OAKS,CA,34.083333,-118.86833,1360,
1CL0,WILLIAM ARCHIBALD,SAN DIMAS,CA,34.105,-117.8,984,
1CL1,LITTLE BUTTES ANTIQUE AIRFIELD,LANCASTER,CA,34.793333,-118.27833,2433,
1CL2,PONTIOUS,MOJAVE,CA,34.941667,-118.17,2610,
1CL3,ALAMEDA COUNTY PARKING GARAGE,OAKLAND,CA,37.8,-122.265,119,
1CL4,UCI MEDICAL CENTER,ORANGE,CA,33.788333,-117.89,140,
1CL5,POMERADO HOSPITAL,POWAY,CA,32.998333,-117.05667,650,
1CL6,LAKE PARK HELISTOP,SACRAMENTO,CA,38.548333,-121.38,45,
1CL7,SAN BERNARDINO COMMUNITY HOSPITA,SAN BERNARDINO,CA,34.13,-117.32167,1209,
1CL8,MARIAN MEDICAL CENTER,SANTA MARIA,CA,34.95,-120.41333,240,
1CL9,SFI-VERNON,VERNON,CA,34.001667,-118.21333,231,
1CO0,THUNDERBIRD HELICOPTERS,MONTROSE,CO,38.498333,-107.93,5800,
1CO1,MOUNT MORRISON,MORRISON,CO,39.668333,-105.22,7881,
1CO2,WILLIAMS RANCH,NORWOOD,CO,38.161667,-108.34,6842,
1CO3,BELLMORE FARMS,NUNN,CO,40.703333,-104.79833,5225,
1CO4,CLIFFORD FIELD,OLATHE,CO,38.575,-107.95833,5560,
1CO5,OTIS,OTIS,CO,40.155,-102.96667,4343,
1CO6,LANDS END MICROWAVE,PALISADE,CO,39.09,-108.22167,9940,
1CO8,EVERITT,PARKER,CO,39.528333,-104.65833,6295,
1CO9,ST ANTHONY HOSPITAL-PARKER,PARKER,CO,39.521667,-104.76,5870,
1CT0,NORDEN SYSTEMS,NORWALK,CT,41.113333,-73.388333,60,
1CT1,TIE COMMUNICATIONS,SEYMOUR,CT,41.39,-73.051667,470,
1D1,MILBANK MUNI,MILBANK,SD,45.233333,-96.563333,1117,122.8
1D2,METTETAL-CANTON,PLYMOUTH,MI,42.35,-83.458333,696,122.7
1D3,PLATTE MUNI,PLATTE,SD,43.403333,-98.83,1618,122.9
1D4,MAYFIELD,AKRON,OH,40.993333,-81.431667,1100,122.9
1D6,HECTOR MUNI,HECTOR,MN,44.731667,-94.715,1077,122.8
1D7,THE SIGURD ANDERSON,WEBSTER,SD,45.293333,-97.513333,1854,122.9
1D8,REDFIELD MUNI,REDFIELD,SD,44.861667,-98.53,1307,122.8
1D9,SKIE AIR SERVICE,LENNOX,SD,43.3,-96.833333,1312,
1E0,ME-OWN,SILVER CITY,NM,33.211667,-108.025,7554,
1E1,DOOLITTLE RANCH,WATROUS,NM,35.816667,-104.95,6570,
1E2,TERLINGUA RANCH,ALPINE,TX,29.45,-103.39833,3769,122.8
1E3,BEAVERHEAD AIRSTRIP,SILVER CITY,NM,33.42,-108.14,7378,
1E4,PALO DURO,AMARILLO,TX,35.141667,-101.83833,3639,122.9
1E6,TURNER RIDGEPORT,SILVER CITY,NM,32.741667,-108.28667,6040,
1E7,BUFFALO,AMARILLO,TX,35.063333,-101.87833,3640,122.9
1E9,GARTRELL FIELD,CANYON,TX,35.065,-101.96167,3677,122.8
1F0,ARDMORE DOWNTOWN EXECUTIVE,ARDMORE,OK,34.146667,-97.123333,842,122.7
1F1,LAKE MURRAY STATE PARK,OVERBROOK,OK,34.075,-97.106667,817,122.8
1F3,HARTLEE FIELD,DENTON,TX,33.268333,-97.071667,588,
1F4,MADILL MUNI,MADILL,OK,34.14,-96.811667,890,122.9
1F7,AIRPARK EAST,DALLAS,TX,32.813333,-96.351667,510,122.7
1F8,AMBASSADOR FIELD,BIG SANDY,TX,32.585,-95.063333,390,
1FD0,LAWRENCE,GRAND RIDGE,FL,30.715,-85.025,130,
1FD1,HALIFAX RIVER,HOLLY HILL,FL,29.241667,-81.033333,0,
1FD2,BASS LIMITED,MADISON,FL,30.62,-83.303333,190,
1FD3,SET HELISTOP,DEERFIELD BEACH,FL,26.318333,-80.125,25,
1FD4,CORKSCREW TRACE,ESTERO,FL,26.445,-81.606667,29,
1FD5,MIAMI HERALD,MIAMI,FL,25.788333,-80.185,102,
1FD6,PAINES PRAIRIE,MICANOPY,FL,29.546667,-82.286667,75,
1FD7,PGA NATIONAL,PALM BEACH GARDENS,FL,26.833333,-80.143333,19,
1FD8,MEMORIAL HOSPITAL-FLAGLER HELIST,BUNNELL,FL,29.468333,-81.253333,23,
1FD9,OCALA BUSINESS CENTER,BELLEVIEW,FL,29.11,-82.05,75,
1G0,WOOD COUNTY,BOWLING GREEN,OH,41.391667,-83.63,673,122.8
1G1,ELYRIA,ELYRIA,OH,41.331667,-82.1,760,122.8
1G3,KENT STATE UNIV,KENT,OH,41.151667,-81.416667,1150,122.7
1G4,SPENCER FIELD,WIXOM,MI,42.521667,-83.55,936,122.9
1G5,MEDINA MUNICIPAL,MEDINA,OH,41.131667,-81.765,1192,123
1G8,EDDIE DEW MEMORIAL AIRPARK,TORONTO,OH,40.476667,-80.628333,1084,122.9
1G9,OAK RIDGE,EAST PALMYRA,NY,43.098333,-77.181667,540,
1GA0,EAGLE NECK,SHELLMAN BLUFF,GA,31.64,-81.328333,10,
1GA1,PRATT AND WHITNEY AIRCRAFT,COLUMBUS,GA,32.543333,-84.831667,430,
1GA2,FLYING N ESTATES,LUTHERSVILLE,GA,33.176667,-84.748333,870,
1GA4,SOUTHERN AG AVIATION,STATESBORO,GA,32.328333,-81.755,180,
1GA5,SHILO FARMS,HAHIRA,GA,30.931667,-83.383333,211,
1GA6,DE DE,BARNESVILLE,GA,33.008333,-84.11,800,
1GA7,ADAMS,CUMMING,GA,34.293333,-84.11,1200,
1GA8,SOUTH ONE TEN,NASHVILLE,GA,31.178333,-83.226667,225,
1GA9,AERIE,MONROE,GA,33.761667,-83.653333,830,
1H0,CREVE COEUR,ST LOUIS,MO,38.726667,-90.506667,447,122.8
1H2,EFFINGHAM COUNTY MEMORIAL,EFFINGHAM,IL,39.07,-88.533333,585,122.8
1H5,WILLOW SPRINGS MEMORIAL,WILLOW SPRINGS,MO,36.996667,-91.963333,1252,122.9
1H6,HARVEY YOUNG,TULSA,OK,36.136667,-95.818333,750,122.8
1H7,GROVE MUNI,GROVE,OK,36.603333,-94.738333,833,122.8
1H8,CASEY MUNI,CASEY,IL,39.303333,-88.003333,654,122.8
1H9,RIBBLE,HETTICK,IL,39.371667,-90.06,608,
1I2,RILEY FLD,ATTICA,IN,40.301667,-87.23,608,122.8
1I3,SHAWNEE FIELD,BLOOMFIELD,IN,39.045,-87.005,501,122.9
1I6,SHERATON LAKEVIEW,CLARKSVILLE,IN,38.283333,-85.755,445,122.9
1I7,CLINTON,CLINTON,IN,39.713333,-87.401667,526,122.8
1I8,CONVERSE,CONVERSE,IN,40.571667,-85.891667,840,122.9
1I9,DELPHI MUNI,DELPHI,IN,40.543333,-86.681667,675,122.9
1IA0,BROWN TRUCK SALES,CORNING,IA,40.896667,-94.791667,1300,
1IA1,ARMY RESERVE PARKING LOT,DECORAH,IA,43.305,-91.791667,845,
1IA2,CAMP TAHIGWA LANDING SITE,DORCHESTER,IA,43.438333,-91.566667,760,
1IA3,SPENCER MUNI HOSPITAL,SPENCER,IA,43.15,-95.141667,1318,
1IA4,WALLACE FIELD,CRESTON,IA,41.055,-94.395,1290,
1IA5,SCH,NEVADA,IA,42.016667,-93.453333,995,
1IA6,AERO-LANE,RANDOLPH,IA,40.885,-95.485,1134,
1IA7,UNIVERSITY OF IOWA HOSPITALS & C,IOWA CITY,IA,41.66,-91.548333,840,
1IA8,SAMARITAN HOSPITAL SOUTH,CLINTON,IA,41.84,-90.313333,700,
1IA9,NEWBROUGH,BRITT,IA,43.068333,-93.901667,1192,
1II0,WEBSTER,HOMER,IN,39.576667,-85.588333,910,
1II1,ST VINCENT HOSPITAL/HEALTH CARE,INDIANAPOLIS,IN,39.91,-86.198333,835,
1II2,ADAMS,GENEVA,IN,40.615,-84.835,850,
1II3,DAVIS,CARLISLE,IN,38.956667,-87.395,500,
1II5,VAN DE MARK,CULVER,IN,41.246667,-86.503333,730,
1II6,ST MARY'S MEDICAL CENTER,EVANSVILLE,IN,37.965,-87.505,386,
1II7,PARKVIEW MEMORIAL HOSPITAL,FORT WAYNE,IN,41.096667,-85.11,817,
1II8,MORRIS,GREENFIELD,IN,39.815,-85.818333,870,
1II9,CATES FIELD,KINGMAN,IN,39.986667,-87.34,655,
1IL0,ORWIG RLA,DELAVAN,IL,40.411667,-89.581667,558,
1IL1,HACKER RLA,IRVING,IL,39.245,-89.426667,653,
1IL2,HOBBY HIDEAWAY RLA,DELAVAN,IL,40.346667,-89.47,660,
1IL3,ALTON MEMORIAL HOSPITAL,ALTON,IL,38.9,-90.16,525,
1IL4,HEITMAN AERDROME,MILLSTADT,IL,38.418333,-90.131667,631,
1IL5,GOODE,BUFFALO PRAIRIE,IL,41.336667,-90.788333,770,
1IL6,BALLY'S STRIP,DIXON,IL,41.866667,-89.441667,786,
1IL7,GEARHART-HOLLOW,DIXON,IL,41.865,-89.503333,800,
1IL8,LOY,DONOVAN,IL,40.931667,-87.596667,665,
1IN0,BELKNAP-ICARUS ACRES,PARKER CITY,IN,40.133333,-85.23,1040,
1IN2,MEHARRY AG SERVICE,WINGATE,IN,40.203333,-87.056667,760,
1IN3,KELLY'S PATCH,ARCOLA,IN,41.098333,-85.241667,865,
1IN4,NORTH WESTWAY PARK,NEW AUGUSTA,IN,39.863333,-86.248333,820,
1IN5,BOTTOMS BROTHERS,SOMERVILLE,IN,38.285,-87.381667,545,
1IS1,COLLISON,COLLISON,IL,40.235,-87.81,710,
1IS3,CRIBBET,BLUE MOUND,IL,39.728333,-89.06,620,
1IS4,SWAN VALLEY FARM,LANARK,IL,42.135,-89.825,916,
1IS5,WALDER'S FARM,PAW PAW,IL,41.651667,-89.005,900,
1IS6,PERCIVAL,WATSON,IL,39.013333,-88.538333,550,
1IS7,INGERSOLL,ROCKFORD,IL,42.3,-89.07,745,
1IS8,SWORD'S,ASHTON,IL,41.863333,-89.221667,799,
1IS9,ROD'S FOX VALLEY,ELGIN,IL,42.066667,-88.283333,750,
1J0,TRI-COUNTY,BONIFAY,FL,30.845,-85.601667,84,122.8
1J6,BOB LEE FLIGHT STRIP,DELAND,FL,29.105,-81.313333,94,122.8
1J7,JAY,JAY,FL,30.955,-87.13,254,
1J8,MADISON COUNTY,LEE,FL,30.446667,-83.311667,150,122.9
1J9,FORT WALTON BEACH,NAVARRE,FL,30.406667,-86.828333,22,122.7
1K1,BENTON,BENTON,KS,37.778333,-97.113333,1364,123
1K3,HAMILTON FIELD,DERBY,KS,37.56,-97.233333,1320,122.9
1K6,ELLINWOOD MUNI,ELLINWOOD,KS,38.373333,-98.595,1797,122.9
1K7,FREDONIA,FREDONIA,KS,37.58,-95.838333,880,122.9
1K9,SATANTA MUNI,SATANTA,KS,37.455,-100.99167,2976,122.8
1KS1,COCHRAN,RICHMOND,KS,38.458333,-95.226667,1005,
1KS2,RILEY,RILEY,KS,39.293333,-96.776667,1335,
1KS3,WALTER STOL STRIP,RILEY,KS,39.303333,-96.758333,1350,
1KS5,KEYSER,ST MARYS,KS,39.161667,-96.096667,950,
1KS6,SILERS PLANE VALLEY,SALINA,KS,38.866667,-97.536667,1204,
1KS7,HITCH FEEDERS II INC.,SATANTA,KS,37.673333,-101.01667,3028,
1KS8,BUEHLER,SCOTT CITY,KS,38.515,-100.995,3038,
1L1,LINCOLN COUNTY,PANACA,NV,37.786667,-114.42167,4828,122.9
1L3,SEARCHLIGHT,SEARCHLIGHT,NV,35.445,-114.91,3410,122.9
1L4,KIDWELL,CAL NEV ARI,NV,35.305,-114.88333,2605,122.9
1L5,SWAINS CREEK,ALTON,UT,37.471667,-112.62167,7780,
1L6,BERYL JUNCTION,BERYL,UT,37.71,-113.645,5181,
1L7,ESCALANTE MUNI,ESCALANTE,UT,37.745,-111.57,5740,122.8
1L8,HURRICANE,HURRICANE,UT,37.138333,-113.30667,3347,122.8
1L9,PAROWAN,PAROWAN,UT,37.86,-112.81667,5930,122.8
1LA0,KEN GUIDRY N0. 2,GUEYDAN,LA,30.016667,-92.528333,6,
1LA1,TRICHE FIELD,HAHNVILLE,LA,29.983333,-90.435,10,
1LA2,PHI HARAHAN,HARAHAN,LA,29.941667,-90.18,0,
1LA3,GOOSE ISLAND,HAYES,LA,30.03,-92.833333,4,
1LA4,BAYOU FOURCHON,LEEVILLE,LA,29.105,-90.191667,0,
1LA5,JOHNSON'S BAYOU,HOLLY BEACH,LA,29.756667,-93.651667,4,
1LA7,SAVOY MEDICAL CENTER,MAMOU,LA,30.641667,-92.418333,100,
1LA8,S.FRESH WATER BAYOU,INTRACOASTAL CITY,LA,29.601667,-92.26,4,
1LA9,CHEVRON INTRACOASTAL,INTRACOASTAL CITY,LA,29.783333,-92.156667,0,
1LL0,BOONDOX FIELD,SENECA,IL,41.33,-88.6,625,
1LL2,SPRING BROOK,SENECA,IL,41.3,-88.635,500,
1LL5,KENNETH MOLL,SHANNON,IL,42.15,-89.788333,873,
1LL6,JANSSEN,SHANNON,IL,42.228333,-89.738333,877,
1LL7,EDWIN G. BENNETT,SHEFFIELD,IL,41.35,-89.773333,690,
1LL8,ZOOMER FIELD,SHELDON,IL,40.788333,-87.558333,680,
1M1,NORTH LITTLE ROCK MUNI,NORTH LITTLE ROCK,AR,34.833333,-92.253333,544,122.8
1M2,BELZONI MUNI,BELZONI,MS,33.145,-90.515,110,122.9
1M3,ARDMORE,ARDMORE,AL,34.978333,-86.885,920,122.9
1M4,POSEY FIELD,HALEYVILLE,AL,34.28,-87.6,930,122.8
1M5,PORTLAND MUNI,PORTLAND,TN,36.593333,-86.476667,818,122.8
1M6,STANDARD FIELD,ELKTON,KY,36.803333,-87.176667,655,122.9
1M7,FULTON,FULTON,KY,36.526667,-88.915,400,122.7
1M9,LAKE BARKLEY STATE PARK,CADIZ,KY,36.818333,-87.908333,570,122.8
1MA0,JORDAN HOSPITAL,PLYMOUTH,MA,41.941667,-70.645,122,
1MA1,NASHOBA COMMUNITY HOSPITAL,AYER,MA,42.576667,-71.573333,308,
1MA2,UMASS MEDICAL CENTER,WORCESTER,MA,42.276667,-71.76,426,
1MA3,BOSTON,BOSTON,MA,42.345,-71.046667,16,122.9
1MA4,WANG,LOWELL,MA,42.61,-71.321667,104,
1MA5,UNKNOWN FIELD,SOUTHBOROUGH,MA,42.278333,-71.548333,432,
1MA6,MICRON,SOUTHWICK,MA,42.068333,-72.745,245,
1MA7,LONG HILL ORCHARD,WEST NEWBURY,MA,42.473333,-70.978333,120,
1MA8,HORIZON HILL,LINCOLN,MA,42.42,-71.31,347,
1MA9,DIGITAL/BEDFORD PARK,BEDFORD,MA,42.508333,-71.248333,125,
1MD0,CLNG COVE POINT,LUSBY,MD,38.391667,-76.408333,133,
1MD1,BIG OAK FARM,CAMBRIDGE,MD,38.568333,-76.286667,4,
1MD2,MD STATE POLICE GLEN BURNIE BARR,GLEN BURNIE,MD,39.166667,-76.643333,90,
1MD3,KRASTEL FARMS,KENNEDYVILLE,MD,39.308333,-75.988333,75,
1MD4,PRINCE GEORGE'S HOSPITAL CENTER,CHEVERLY,MD,38.93,-76.92,200,
1MD5,FEDERAL SUPPORT CENTER,LAYTONSVILLE,MD,39.191667,-77.106667,510,
1MD6,METROPLEX,NEW CARROLLTON,MD,38.946667,-76.868333,99,
1MD7,SHADY GROVE ADVENTIST HOSPITAL,ROCKVILLE,MD,39.098333,-77.196667,475,
1MD8,MAYBERRY RUN,WESTMINSTER/SILVER RUN,MD,39.683333,-77.096667,580,
1MD9,WASHINGTON COUNTY HOSPITAL,HAGERSTOWN,MD,39.636667,-77.715,589,
1MI0,ASHMAN ISLAND,DRUMMOND ISLAND,MI,46.068333,-83.725,581,
1MI1,NIKKILA FARMS,MASS,MI,46.703333,-88.996667,1100,
1MI3,BLACK RIVER RANCH,ONAWAY,MI,45.196667,-84.321667,880,
1MI4,RAMSY FARM,PERRONVILLE,MI,45.838333,-87.321667,880,
1MI5,BOYER,ROSE CITY,MI,44.383333,-84.066667,883,
1MI6,ROSEDALE,SAULT STE MARIE,MI,46.378333,-84.311667,675,
1MI7,THOMPSON,SELKIRK,MI,44.316667,-84.066667,857,
1MN0,WETHERBEE FARM,TENNEY,MN,46.043333,-96.546667,980,
1MN1,BEYER,TENNEY,MN,45.973333,-96.565,1000,
1MN4,KRUEGER LOON LAKE,VERGAS,MN,46.621667,-95.836667,1370,
1MN5,MOLNAU AIRPARK,WACONIA,MN,44.843333,-93.74,1000,
1MN8,SKY HARBOR RESIDENTIAL AIRPARK,WEBSTER,MN,44.525,-93.326667,1111,
1MN9,BALD EAGLE,WHITE BEAR LAKE,MN,45.116667,-93.016667,910,
1MO0,MARSH FARM,DEARBORN,MO,39.488333,-94.78,1000,
1MO1,ST JOSEPH HOSPITAL,KIRKWOOD,MO,38.568333,-90.433333,530,
1MO2,HART,FREEMAN,MO,38.55,-94.476667,825,
1MO3,LAKE VIKING,GALLATIN,MO,39.933333,-94.073333,940,
1MO4,LONGWOOD MFG CORP,GALLATIN,MO,39.891667,-93.863333,800,
1MO6,DOUBLE S RANCH,GRANDIN,MO,36.836667,-90.721667,737,
1MO7,HINES,GORIN,MO,40.363333,-91.975,750,
1MO8,ADKINS,GRAVOIS MILLS,MO,38.253333,-92.803333,800,
1MO9,EAGLE'S POINT & RED BARN VILLAGE,GREENFIELD,MO,37.48,-93.851667,1040,
1MS0,TAPLEY,SHAW,MS,33.6,-90.781667,129,
1MS1,NESHOBA GENERAL HOSPITAL,PHILADELPHIA,MS,32.756667,-89.106667,388,
1MS2,PETERSON,GOODMAN,MS,32.941667,-89.93,240,
1MS3,MONTFORT JONES MEMORIAL HOSPITAL,KOSCIUSKO,MS,33.066667,-89.598333,455,
1MS4,METHODIST MEDICAL CENTER,JACKSON,MS,32.288333,-90.256667,366,
1MS5,GENERAL DAN C MILLS EMERGENCY,BYHALIA,MS,34.888333,-89.703333,44,
1MS6,EAGLES RIDGE,HERNANDO,MS,34.796667,-89.913333,262,
1MS7,SMITH COUNTY GENERAL HOSPITAL,RALEIGH,MS,32,-89.52,535,
1MS8,COLUMBUS AFB AUX FIELD,SHUQUALAK,MS,32.94,-88.58,260,
1MS9,PIKER-TOO,CENTREVILLE,MS,31.011667,-90.968333,300,
1N0,RIDGELY AIRPARK,RIDGELY,MD,38.97,-75.866667,63,122.8
1N2,SPADARO,EAST MORICHES,NY,40.828333,-72.748333,50,123
1N3,ALBERT,PHILIPSBURG,PA,40.975,-78.25,1784,122.9
1N4,WOODBINE MUNI,WOODBINE,NJ,39.218333,-74.795,42,122.8
1N5,BENNETT,SALISBURY,MD,38.413333,-75.61,40,122.8
1N6,NORDHEIM FLYING K AIRPARK,BARGAINTOWN,NJ,39.393333,-74.606667,53,
1N7,BLAIRSTOWN,BLAIRSTOWN,NJ,40.971667,-74.996667,372,123
1N9,ALLENTOWN QUEEN CITY MUNI,ALLENTOWN,PA,40.57,-75.488333,399,122.7
1NA0,BOHN AIRSTRIP,MOUNTAIN,ND,48.731667,-97.89,1142,
1NA2,ANTELOPE,RICHARDTON,ND,46.853333,-102.20833,2430,
1NA4,LOGGING CAMP RANCH AIRSTRIP,AMIDON,ND,46.593333,-103.515,2420,
1NA5,GIENGER/BOX BAR RANCH,STREETER,ND,46.625,-99.45,1950,
1NA6,DAVIES AIRSTRIP,VALLEY CITY,ND,46.96,-98.108333,1430,
1NA7,HANDEGARD AIRSTRIP,ALMONT,ND,46.58,-101.51667,1890,
1NA8,PRESZLER AIRSTRIP,BRADDOCK,ND,46.69,-100.095,1795,
1NA9,MYRAN AIRSTRIP,TAYLOR,ND,47.033333,-102.495,2120,
1NC0,DELK'S,ASHEBORO,NC,35.721667,-79.941667,460,
1NC1,USAR CENTER CHARLOTTE,CHARLOTTE,NC,35.218333,-80.806667,710,
1NC2,TRAINING AND TECHNOLOGY CENTER,CORNELIUS,NC,35.44,-80.94,768,
1NC3,FLETCHER'S,ELIZABETH CITY,NC,36.18,-76.148333,7,
1NC5,USAR CENTER RALEIGH,RALEIGH,NC,35.8,-78.68,450,
1NC6,ARANT,WINGATE,NC,35.056667,-80.45,577,
1NC7,DONALD'S AIR PARK INC.,PLYMOUTH,NC,35.733333,-76.67,18,
1NC8,SEVEN LAKES,WEST END,NC,35.235,-79.581667,580,
1ND0,ERICKSON FLD,HETTINGER,ND,46.191667,-102.52167,2550,
1ND1,FORDAHL,HETTINGER,ND,46.18,-102.54667,2541,
1ND2,BOEDER,HOPE,ND,47.385,-97.713333,1240,
1ND3,HAMRY FIELD,KINDRED,ND,46.648333,-97.005,945,122.9
1ND6,VISTO'S,LUDDEN,ND,45.966667,-98.178333,1325,
1ND7,DITTMER,LYNCHBURG,ND,46.828333,-97.266667,943,
1ND9,WACHTER RANCH PRIVATE,MANDAN,ND,46.943333,-100.93833,1645,
1NE0,HIGGINS BROS,BROWNLEE,NE,42.316667,-100.41667,2860,
1NE1,PAUL RIDDER RANCH,CALLAWAY,NE,41.283333,-100.05,2880,
1NE2,WITTHUHN,CALLAWAY,NE,41.325,-99.916667,2700,
1NE3,O & N,CHADRON,NE,42.836667,-102.99167,3401,
1NE5,SIBBERNSEN,WASHINGTON,NE,41.406667,-96.285,1280,
1NE6,MILLER AIRSTRIP,DALTON,NE,41.34,-102.77833,4100,
1NE9,KOCH RANCH,ELLSWORTH,NE,42.043333,-102.19167,3937,
1NJ0,JERSEY TURNPIKE,NEW BRUNSWICK,NJ,40.476667,-74.408333,102,
1NJ1,RUTGER'S HELISTOP SEC. A & B,NEW BRUNSWICK,NJ,40.48,-74.435,116,
